Facility,State,name,Date,Source,cases,staffcases,deaths,staffdeaths,pop,currentpop,lat,lon
state,Alabama,ALABAMA HEADQUARTERS,4/23/2021,http://www.doc.alabama.gov/covid19news,0,72,0,0,,,,
state,Alabama,ALABAMA TREATMENT AND EDUCATION FACILITY,4/23/2021,http://www.doc.alabama.gov/covid19news,11,2,1,0,281,,33.18100499,-86.62401724
state,Alabama,ALEX CITY COMMUNITY BASED FACILITY,4/23/2021,http://www.doc.alabama.gov/covid19news,77,17,0,0,201,,32.90447114,-86.00896897
federal,Alabama,ALICEVILLE FEDERAL CORRECTIONAL INSTITUTION,4/23/2021,https://www.bop.gov/mobile/about/population_statistics.jsp,105,,0,0,1267,1089,33.17626974,-88.19304609
state,Alabama,BIBB CORRECTIONAL FACILITY,4/23/2021,http://www.doc.alabama.gov/covid19news,164,61,3,0,1808,,32.92242,-87.16458
state,Alabama,BIRMINGHAM COMMUNITY BASED FACILITY,4/23/2021,http://www.doc.alabama.gov/covid19news,17,28,0,0,239,,33.53104632,-86.80836181
state,Alabama,BULLOCK CORRECTIONAL FACILITY,4/23/2021,http://www.doc.alabama.gov/covid19news,163,80,5,1,1343,,32.14940285,-85.67232013
state,Alabama,CAMDEN COMMUNITY BASED FACILITY,4/23/2021,http://www.doc.alabama.gov/covid19news,5,3,0,0,93,,31.99483708,-87.33312321
state,Alabama,CHILDERSBURG COMMUNITY BASED FACILITY,4/23/2021,http://www.doc.alabama.gov/covid19news,5,14,0,0,368,,33.36493323,-86.33219762
state,Alabama,DONALDSON CORRECTIONAL FACILITY,4/23/2021,http://www.doc.alabama.gov/covid19news,45,26,2,0,1386,,33.51366663,-87.18478369
state,Alabama,DRAPER QUARANTINE INTAKE FACILITY,4/23/2021,http://www.doc.alabama.gov/covid19news,132,0,0,0,,,,
state,Alabama,EASTERLING CORRECTIONAL FACILITY,4/23/2021,http://www.doc.alabama.gov/covid19news,72,47,2,0,1229,,31.68938149,-85.58555889
state,Alabama,ELBA COMMUNITY BASED FACILITY,4/23/2021,http://www.doc.alabama.gov/covid19news,1,8,0,0,130,,31.41312386,-86.08373748
state,Alabama,ELMORE CORRECTIONAL FACILITY,4/23/2021,http://www.doc.alabama.gov/covid19news,28,18,0,0,1161,,32.57430479,-86.32080582
state,Alabama,FOUNTAIN CORRECTIONAL FACILITY,4/23/2021,http://www.doc.alabama.gov/covid19news,29,47,1,0,1136,,31.15658,-87.46372
state,Alabama,FRANK LEE COMMUNITY BASED FACILITY,4/23/2021,http://www.doc.alabama.gov/covid19news,26,22,0,0,285,,32.58235451,-86.39221844
state,Alabama,HAMILTON AGED AND INFIRMED,4/23/2021,http://www.doc.alabama.gov/covid19news,49,41,14,0,243,,34.12434611,-87.99171938
state,Alabama,HAMILTON COMMUNITY BASED FACILITY,4/23/2021,http://www.doc.alabama.gov/covid19news,8,21,2,0,220,,34.14329559,-87.95895958
state,Alabama,HOLMAN CORRECTIONAL FACILITY,4/23/2021,http://www.doc.alabama.gov/covid19news,39,33,2,0,700,,31.13438612,-87.4498642
state,Alabama,KILBY CORRECTIONAL FACILITY,4/23/2021,http://www.doc.alabama.gov/covid19news,25,44,2,0,1231,,32.38835654,-86.1009811
state,Alabama,LIMESTONE CORRECTIONAL FACILITY,4/23/2021,http://www.doc.alabama.gov/covid19news,153,106,4,0,2107,,34.81254392,-86.80413307
state,Alabama,LOXLEY COMMUNITY BASED FACILITY,4/23/2021,http://www.doc.alabama.gov/covid19news,106,14,0,0,356,,30.6153358,-87.77030984
state,Alabama,MOBILE COMMUNITY BASED FACILITY,4/23/2021,http://www.doc.alabama.gov/covid19news,14,21,0,0,192,,30.73788106,-88.10905742
federal,Alabama,MONTGOMERY FEDERAL PRISON CAMP,4/23/2021,https://www.bop.gov/mobile/about/population_statistics.jsp,107,,0,0,858,334,32.39424124,-86.35915818
state,Alabama,MONTGOMERY WOMENS FACILITY,4/23/2021,http://www.doc.alabama.gov/covid19news,1,11,0,0,274,,32.38964157,-86.09912245
state,Alabama,NORTH ALABAMA COMMUNITY BASED FACILITY,4/23/2021,http://www.doc.alabama.gov/covid19news,87,30,0,0,555,,34.61756728,-87.00562813
state,Alabama,RED EAGLE COMMUNITY BASED FACILITY,4/23/2021,http://www.doc.alabama.gov/covid19news,18,20,0,0,333,,32.46559439,-86.23690422
federal,Alabama,RRC BIRMINGHAM ALABAMA,4/23/2021,https://www.bop.gov/coronavirus/,4,,0,0,,,,
federal,Alabama,RRC SPANISH FORT ALABAMA,4/23/2021,https://www.bop.gov/coronavirus/,2,,0,0,,,,
state,Alabama,ST CLAIR CORRECTIONAL FACILITY,4/23/2021,http://www.doc.alabama.gov/covid19news,106,58,16,0,964,,33.74558817,-86.38437373
state,Alabama,STATON CORRECTIONAL FACILITY,4/23/2021,http://www.doc.alabama.gov/covid19news,60,61,7,0,1303,,32.5772157,-86.33248852
federal,Alabama,TALLADEGA FEDERAL CORRECTIONAL INSTITUTION,4/23/2021,https://www.bop.gov/mobile/about/population_statistics.jsp,293,,4,0,793,839,33.42063528,-86.14008892
state,Alabama,TUTWILER PRISON FOR WOMEN,4/23/2021,http://www.doc.alabama.gov/covid19news,82,71,3,2,565,,32.5640382,-86.1940048
state,Alabama,TUTWILER QUARANTINE INTAKE FACILITY,4/23/2021,http://www.doc.alabama.gov/covid19news,35,0,0,0,,,,
state,Alabama,VENTRESS CORRECTIONAL FACILITY,4/23/2021,http://www.doc.alabama.gov/covid19news,77,46,1,0,1245,,31.88902864,-85.49299808
state,Alaska,ANCHORAGE CCC,4/23/2021,https://doc.alaska.gov/covid-19,,,,,832,,61.21842095,-149.8562424
state,Alaska,GOOSE CREEK CC,4/23/2021,https://doc.alaska.gov/covid-19,,,,,1125,,61.36030624,-150.0084479
state,Alaska,LEMON CREEK CC JUNEAU,4/23/2021,https://doc.alaska.gov/covid-19,,,,,209,,58.36260637,-134.4840555
state,Alaska,STATEWIDE,4/23/2021,https://doc.alaska.gov/covid-19,2404,,5,,,,,
federal,Arizona,BEHAVIORAL SYSTEMS SOUTHWEST INC RRC PHOENIX,4/23/2021,https://www.bop.gov/coronavirus/,3,,1,0,,,33.4588091,-112.0198483
state,Arizona,CENTRAL ARIZONA CORRECTIONAL FACILITY,4/23/2021,https://corrections.az.gov/adcrr-covid-19-dashboard?order=title_field&sort=asc,69,,3,,1273,1278,33.03731012,-111.3727528
federal,Arizona,CENTRAL ARIZONA FLORENCE CORRECTIONAL COMPLEX,4/23/2021,https://www.bop.gov/coronavirus/,2,,0,0,1278,,33.04417322,-111.3754981
federal,Arizona,DISMAS CHARITIES RRC TUCSON,4/23/2021,https://www.bop.gov/coronavirus/,10,,0,0,,,32.1848502,-110.9184934
state,Arizona,DOUGLAS STATE PRISON,4/23/2021,https://corrections.az.gov/adcrr-covid-19-dashboard?order=title_field&sort=asc,1163,,0,,2086,1804,31.46242829,-109.5912299
state,Arizona,EYMAN STATE PRISON,4/23/2021,https://corrections.az.gov/adcrr-covid-19-dashboard?order=title_field&sort=asc,2029,,10,,5693,5211,33.03691871,-111.3264441
state,Arizona,FLORENCE STATE PRISON,4/23/2021,https://corrections.az.gov/adcrr-covid-19-dashboard?order=title_field&sort=asc,441,,13,,3924,2696,33.02816949,-111.3707281
state,Arizona,FLORENCE WEST STATE PRISON,4/23/2021,https://corrections.az.gov/adcrr-covid-19-dashboard?order=title_field&sort=asc,45,,0,,742,576,33.037233,-111.376527
state,Arizona,KINGMAN STATE PRISON,4/23/2021,https://corrections.az.gov/adcrr-covid-19-dashboard?order=title_field&sort=asc,653,,5,,3360,2574,35.02891497,-114.1796097
state,Arizona,LEWIS STATE PRISON,4/23/2021,https://corrections.az.gov/adcrr-covid-19-dashboard?order=title_field&sort=asc,1303,,2,,4623,4540,33.2085241,-112.6514629
state,Arizona,MARANA STATE PRISON,4/23/2021,https://corrections.az.gov/adcrr-covid-19-dashboard?order=title_field&sort=asc,22,,0,,487,339,32.41791032,-111.2412161
county,Arizona,MARICOPA COUNTY JAIL,4/23/2021,https://www.maricopa.gov/5574/COVID-19-in-County-Jails,2724,,0,,5306,,33.44552,-112.0784
state,Arizona,MARICOPA REEENTRY CENTER,4/23/2021,https://corrections.az.gov/adcrr-covid-19-dashboard?order=title_field&sort=asc,0,,0,,62,0,33.70669655,-112.1194385
state,Arizona,PERRYVILLE STATE PRISON,4/23/2021,https://corrections.az.gov/adcrr-covid-19-dashboard?order=title_field&sort=asc,381,,1,,4336,3483,33.47038654,-112.4377658
federal,Arizona,PHOENIX FEDERAL CORRECTIONAL INSTITUTION,4/23/2021,https://www.bop.gov/mobile/about/population_statistics.jsp,471,,1,0,,849,33.8328213,-112.1706131
state,Arizona,PHOENIX STATE PRISON,4/23/2021,https://corrections.az.gov/adcrr-covid-19-dashboard?order=title_field&sort=asc,652,,0,,544,537,33.45312989,-112.0250399
state,Arizona,PHOENIX WEST STATE PRISON,4/23/2021,https://corrections.az.gov/adcrr-covid-19-dashboard?order=title_field&sort=asc,44,,1,,498,470,33.43277711,-112.1326085
state,Arizona,PIMA REENTRY CENTER,4/23/2021,https://corrections.az.gov/adcrr-covid-19-dashboard?order=title_field&sort=asc,0,,0,,72,0,32.2037634,-110.9909333
state,Arizona,RED ROCK STATE PRISON,4/23/2021,https://corrections.az.gov/adcrr-covid-19-dashboard?order=title_field&sort=asc,119,,0,,1956,1974,32.81056,-111.5196
federal,Arizona,SAFFORD FEDERAL CORRECTIONAL INSTITUTION,4/23/2021,https://www.bop.gov/mobile/about/population_statistics.jsp,597,,0,0,,768,32.7171048,-109.7271215
state,Arizona,SAFFORD STATE PRISON,4/23/2021,https://corrections.az.gov/adcrr-covid-19-dashboard?order=title_field&sort=asc,846,,0,,1579,1148,32.82810149,-109.5636396
state,Arizona,STATEWIDE,4/23/2021,https://corrections.az.gov/adcrr-covid-19-dashboard?order=title_field&sort=asc,,2758,,,,,,
federal,Arizona,TUCSON FEDERAL CORRECTIONAL INSTITUTION,4/23/2021,https://www.bop.gov/mobile/about/population_statistics.jsp,128,,0,0,630,210,32.08957049,-110.8562398
state,Arizona,TUCSON STATE PRISON,4/23/2021,https://corrections.az.gov/adcrr-covid-19-dashboard?order=title_field&sort=asc,2241,,13,,5132,4647,32.06640097,-110.8663122
federal,Arizona,TUCSON UNITED STATES PENITENTIARY,4/23/2021,https://www.bop.gov/mobile/about/population_statistics.jsp,872,,11,0,1385,1257,32.08384226,-110.867108
state,Arizona,WINSLOW STATE PRISON,4/23/2021,https://corrections.az.gov/adcrr-covid-19-dashboard?order=title_field&sort=asc,246,,0,,1295,1128,34.98471625,-110.7210891
state,Arizona,YUMA STATE PRISON,4/23/2021,https://corrections.az.gov/adcrr-covid-19-dashboard?order=title_field&sort=asc,2014,,6,,4876,4174,32.48750181,-114.6397153
federal,Arkansas,CITY FAITH LITTLE ROCK AR,4/23/2021,https://www.bop.gov/coronavirus/,1,,0,0,,,34.739751,-92.344458
federal,Arkansas,FORREST CITY LOW FEDERAL CORRECTIONAL INSTITUTION,4/23/2021,https://www.bop.gov/mobile/about/population_statistics.jsp,577,,0,0,1821,1193,34.98233926,-90.80306156
federal,Arkansas,FORREST CITY MEDIUM FEDERAL CORRECTIONAL INSTITUTION,4/23/2021,https://www.bop.gov/mobile/about/population_statistics.jsp,422,,2,0,1821,1330,34.98233926,-90.80306156
state,Arkansas,STATEWIDE,4/23/2021,https://doc.arkansas.gov/covid-19-updates/,11285,,,,,,,
federal,California,ATWATER UNITED STATES PENITENTIARY,4/23/2021,https://www.bop.gov/mobile/about/population_statistics.jsp,385,,0,0,,861,,
state,California,AVENAL STATE PRISON,4/23/2021,https://www.cdcr.ca.gov/covid19/cdcr-cchcs-covid-19-status/,3107,536,8,,4204,3093,35.97394934,-120.1231018
federal,California,BEHAVIORAL SYSTEMS SOUTHWEST RUBIDOUX,4/23/2021,https://www.bop.gov/coronavirus/,6,,0,0,,,,
federal,California,BEHAVIORAL SYSTEMS SOUTHWEST VAN NUYS,4/23/2021,https://www.bop.gov/coronavirus/,5,,0,0,,,,
federal,California,BRAWLEY RRC,4/23/2021,https://www.bop.gov/coronavirus/,7,,1,0,,,32.979598,-115.5328039
state,California,CALIFORNIA CITY CORRECTIONAL FACILITY,4/23/2021,https://www.cdcr.ca.gov/covid19/cdcr-cchcs-covid-19-status/,999,233,2,,2424,1963,35.1532512,-117.8588801
state,California,CALIFORNIA CORRECTIONAL CENTER,4/23/2021,https://www.cdcr.ca.gov/covid19/cdcr-cchcs-covid-19-status/,1365,300,0,,4049,2097,40.40195801,-120.5167302
state,California,CALIFORNIA CORRECTIONAL INSTITUTION,4/23/2021,https://www.cdcr.ca.gov/covid19/cdcr-cchcs-covid-19-status/,1384,657,4,,3696,2946,35.10991489,-118.5703307
state,California,CALIFORNIA HEALTH CARE FACILITY,4/23/2021,https://www.cdcr.ca.gov/covid19/cdcr-cchcs-covid-19-status/,621,661,14,,2849,2464,37.8947278,-121.1848441
state,California,CALIFORNIA INSTITUTION FOR MEN,4/23/2021,https://www.cdcr.ca.gov/covid19/cdcr-cchcs-covid-19-status/,1499,588,27,,3627,1946,33.98471223,-117.6823919
state,California,CALIFORNIA INSTITUTION FOR WOMEN,4/23/2021,https://www.cdcr.ca.gov/covid19/cdcr-cchcs-covid-19-status/,490,362,1,,1619,974,33.94974531,-117.636365
state,California,CALIFORNIA MEDICAL FACILITY,4/23/2021,https://www.cdcr.ca.gov/covid19/cdcr-cchcs-covid-19-status/,710,350,11,,2512,1965,38.32851019,-121.9791645
state,California,CALIFORNIA MENS COLONY,4/23/2021,https://www.cdcr.ca.gov/covid19/cdcr-cchcs-covid-19-status/,2470,538,10,,3758,3002,35.32457413,-120.6989005
state,California,CALIFORNIA REHABILITATION CENTER,4/23/2021,https://www.cdcr.ca.gov/covid19/cdcr-cchcs-covid-19-status/,1993,502,1,,3802,1831,33.92691794,-117.5759442
state,California,CALIFORNIA STATE PRISON CORCORAN,4/23/2021,https://www.cdcr.ca.gov/covid19/cdcr-cchcs-covid-19-status/,1075,735,4,,3043,3104,36.06081823,-119.549121
state,California,CALIFORNIA STATE PRISON LOS ANGELES,4/23/2021,https://www.cdcr.ca.gov/covid19/cdcr-cchcs-covid-19-status/,1511,616,13,,3218,2768,34.69359649,-118.2276136
state,California,CALIFORNIA STATE PRISON SACRAMENTO,4/23/2021,https://www.cdcr.ca.gov/covid19/cdcr-cchcs-covid-19-status/,291,330,1,,2354,2247,38.69444411,-121.1539037
state,California,CALIFORNIA STATE PRISON SAN QUENTIN,4/23/2021,https://www.cdcr.ca.gov/covid19/cdcr-cchcs-covid-19-status/,2242,443,28,,4032,2463,37.94003982,-122.4903665
state,California,CALIFORNIA STATE PRISON SOLANO,4/23/2021,https://www.cdcr.ca.gov/covid19/cdcr-cchcs-covid-19-status/,1150,251,6,,4306,3225,38.32077652,-121.9752369
state,California,CALIPATRIA STATE PRISON,4/23/2021,https://www.cdcr.ca.gov/covid19/cdcr-cchcs-covid-19-status/,1124,363,2,,3109,3039,33.16569337,-115.484344
state,California,CENTINELA STATE PRISON,4/23/2021,https://www.cdcr.ca.gov/covid19/cdcr-cchcs-covid-19-status/,864,439,1,,3475,3110,32.82339731,-115.7890555
state,California,CENTRAL CALIFORNIA WOMENS FACILITY,4/23/2021,https://www.cdcr.ca.gov/covid19/cdcr-cchcs-covid-19-status/,808,277,1,,2814,2381,37.09368073,-120.1527098
state,California,CHUCKAWALLA VALLEY STATE PRISON,4/23/2021,https://www.cdcr.ca.gov/covid19/cdcr-cchcs-covid-19-status/,1784,284,9,,2773,1886,33.56257951,-114.9095058
federal,California,CORRECTIONAL ALTERNATIVES INC RRC SAN DIEGO,4/23/2021,https://www.bop.gov/coronavirus/,5,,0,0,,,,
state,California,CORRECTIONAL TRAINING FACILITY,4/23/2021,https://www.cdcr.ca.gov/covid19/cdcr-cchcs-covid-19-status/,2719,358,19,,5063,4522,36.46964789,-121.3822324
state,California,DEUEL VOCATIONAL INSTITUTION,4/23/2021,https://www.cdcr.ca.gov/covid19/cdcr-cchcs-covid-19-status/,543,293,0,,2052,666,37.74805759,-121.3306264
federal,California,DUBLIN FEDERAL CORRECTIONAL INSTITUTION,4/23/2021,https://www.bop.gov/mobile/about/population_statistics.jsp,281,,0,0,1019,785,37.71857929,-121.896971
state,California,FOLSOM STATE PRISON,4/23/2021,https://www.cdcr.ca.gov/covid19/cdcr-cchcs-covid-19-status/,1369,224,2,,2871,2032,38.69538339,-121.1630324
federal,California,GEO CARE EL MONTE,4/23/2021,https://www.bop.gov/coronavirus/,4,,0,0,,,,
federal,California,GEO CARE LLC RCC SACRAMENTO,4/23/2021,https://www.bop.gov/coronavirus/,0,,,,,,38.5829489,-121.4974335
federal,California,GEO REENTRY OF ALASKA INC RRC OAKLAND,4/23/2021,https://www.bop.gov/coronavirus/,1,,0,0,,,,
federal,California,GEO TAYLOR ST FACILITY RRC,4/23/2021,https://www.bop.gov/coronavirus/,4,,0,0,,,,
federal,California,HERLONG FEDERAL CORRECTIONAL INSTITUTION,4/23/2021,https://www.bop.gov/mobile/about/population_statistics.jsp,263,,0,0,,870,,
state,California,HIGH DESERT STATE PRISON,4/23/2021,https://www.cdcr.ca.gov/covid19/cdcr-cchcs-covid-19-status/,2032,584,2,,3161,3333,40.4034569,-120.5258579
state,California,IRONWOOD STATE PRISON,4/23/2021,https://www.cdcr.ca.gov/covid19/cdcr-cchcs-covid-19-status/,1568,384,1,,2896,2660,33.56098104,-114.9260354
state,California,KERN VALLEY STATE PRISON,4/23/2021,https://www.cdcr.ca.gov/covid19/cdcr-cchcs-covid-19-status/,895,559,6,,3551,3669,35.76647437,-119.3253627
federal,California,LOMPOC FEDERAL CORRECTIONAL INSTITUTION,4/23/2021,https://www.bop.gov/mobile/about/population_statistics.jsp,585,,3,0,1257,825,34.67675537,-120.4994621
federal,California,LOMPOC UNITED STATES PENITENTIARY,4/23/2021,https://www.bop.gov/mobile/about/population_statistics.jsp,244,,2,0,947,759,34.67918746,-120.5054801
county,California,LOS ANGELES JAILS,4/23/2021,https://lasd.org/covid19updates/,4312,2926,13,,17076,15162,34.0591,-118.2321
federal,California,LOS ANGELES MTROPOLITAN DETENTION CENTER,4/23/2021,https://www.bop.gov/mobile/about/population_statistics.jsp,258,,1,0,713,528,34.0536306,-118.238468
federal,California,MENDOTA FEDERAL CORRECTIONAL INSTITUTION,4/23/2021,https://www.bop.gov/mobile/about/population_statistics.jsp,69,,0,0,,797,,
state,California,MULE CREEK STATE PRISON,4/23/2021,https://www.cdcr.ca.gov/covid19/cdcr-cchcs-covid-19-status/,1846,415,9,,4007,3940,38.37074335,-120.9534458
state,California,NA CHADERJIAN YOUTH CORRECTIONAL FACILITY,4/23/2021,https://www.cdcr.ca.gov/covid19/cdcr-cchcs-covid-19-status/,,50,,,216,,37.8911829,-121.1978212
state,California,NORTH KERN STATE PRISON,4/23/2021,https://www.cdcr.ca.gov/covid19/cdcr-cchcs-covid-19-status/,922,628,4,,4355,3240,35.78188512,-119.3098757
state,California,NORTHERN CALIFORNIA YOUTH CORRECTIONAL CENTER,4/23/2021,https://www.cdcr.ca.gov/covid19/cdcr-cchcs-covid-19-status/,,29,,,216,,37.8911829,-121.1978213
state,California,OH CLOSE YOUTH CORRECTIONAL FACILITY,4/23/2021,https://www.cdcr.ca.gov/covid19/cdcr-cchcs-covid-19-status/,,30,,,169,,37.89852126,-121.1976947
county,California,ORANGE COUNTY JAILS,4/23/2021,https://ocsheriff.gov/about-ocsd/covid-19/covid-19-oc-jails,2318,,,,5074,,33.7489556,-117.8774523
state,California,PELICAN BAY STATE PRISON,4/23/2021,https://www.cdcr.ca.gov/covid19/cdcr-cchcs-covid-19-status/,221,208,0,,2648,2165,41.85480851,-124.1490751
state,California,PINE GROVE JUVENILE PRISON CAMP,4/23/2021,https://www.cdcr.ca.gov/covid19/cdcr-cchcs-covid-19-status/,,12,,,,,,
state,California,PLEASANT VALLEY STATE PRISON,4/23/2021,https://www.cdcr.ca.gov/covid19/cdcr-cchcs-covid-19-status/,1990,437,3,,3131,2789,36.13147309,-120.2488996
state,California,RICHARD A MCGEE CORRECTIONAL TRAINING CENTER,4/23/2021,https://www.cdcr.ca.gov/covid19/cdcr-cchcs-covid-19-status/,,102,,,,,38.2890255,-121.3279067
state,California,RJ DONOVAN CORRECTIONAL FACILITY,4/23/2021,https://www.cdcr.ca.gov/covid19/cdcr-cchcs-covid-19-status/,1011,521,18,,3845,3494,32.58456487,-116.9335763
state,California,SALINAS VALLEY STATE PRISON,4/23/2021,https://www.cdcr.ca.gov/covid19/cdcr-cchcs-covid-19-status/,680,609,5,,2917,3099,36.47885699,-121.3743944
federal,California,SAN DIEGO METROPOLITAN CORRECTIONAL CENTER,4/23/2021,https://www.bop.gov/mobile/about/population_statistics.jsp,189,,1,0,,702,,
state,California,SIERRA CONSERVATION CENTER,4/23/2021,https://www.cdcr.ca.gov/covid19/cdcr-cchcs-covid-19-status/,1429,226,0,,4393,2866,37.89168856,-120.5365401
state,California,SUBSTANCE ABUSE TREATMENT FACILITY,4/23/2021,https://www.cdcr.ca.gov/covid19/cdcr-cchcs-covid-19-status/,3011,647,7,,5291,4675,36.05396,-119.5478
federal,California,TERMINAL ISLAND FEDERAL CORRECTIONAL INSTITUTION,4/23/2021,https://www.bop.gov/mobile/about/population_statistics.jsp,419,,10,0,1185,643,33.726491,-118.2670631
state,California,VALLEY STATE PRISON,4/23/2021,https://www.cdcr.ca.gov/covid19/cdcr-cchcs-covid-19-status/,1730,283,2,,2999,2876,37.10547736,-120.1554719
state,California,VENTURA,4/23/2021,https://www.cdcr.ca.gov/covid19/cdcr-cchcs-covid-19-status/,,72,,,,,,
federal,California,VICTORVILLE MEDIUM I FEDERAL CORRECTIONAL INSTITUTION,4/23/2021,https://www.bop.gov/mobile/about/population_statistics.jsp,630,,2,1,,1169,,
federal,California,VICTORVILLE MEDIUM II FEDERAL CORRECTIONAL INSTITUTION,4/23/2021,https://www.bop.gov/mobile/about/population_statistics.jsp,414,,1,0,1216,961,34.56848411,-117.3583145
federal,California,VICTORVILLE UNITED STATES PENITENTIARY,4/23/2021,https://www.bop.gov/mobile/about/population_statistics.jsp,444,,0,0,,1090,,
state,California,WASCO STATE PRISON,4/23/2021,https://www.cdcr.ca.gov/covid19/cdcr-cchcs-covid-19-status/,1762,538,1,,4588,3120,35.59431189,-119.4083319
federal,California,WESTERN REGIONAL OFFICE,4/23/2021,https://www.bop.gov/coronavirus/,,,0,0,,,,
state,Colorado,ARKANSAS VALLEY CORRECTIONAL FACILITY,4/23/2021,https://cdoc.colorado.gov/resources/covid-19-faq-and-updates,943,,4,,1065,951,38.19146827,-103.8421854
state,Colorado,ARROWHEAD CORRECTIONAL FACILITY,4/23/2021,https://cdoc.colorado.gov/resources/covid-19-faq-and-updates,358,,1,,528,384,38.43610328,-105.1590956
state,Colorado,BENT COUNTY CORRECTIONAL FACILITY,4/23/2021,https://cdoc.colorado.gov/resources/covid-19-faq-and-updates,1088,,2,,1400,1079,38.06456309,-103.2047922
state,Colorado,BUENA VISTA CORRECTIONAL COMPLEX,4/23/2021,https://cdoc.colorado.gov/resources/covid-19-faq-and-updates,520,,1,,1212,887,38.82210118,-106.1147135
state,Colorado,CENTENNIAL CORRECTIONAL FACILITY,4/23/2021,https://cdoc.colorado.gov/resources/covid-19-faq-and-updates,161,,0,,306,874,38.43776663,-105.1516726
state,Colorado,COLORADO CORRECTIONAL CENTER,4/23/2021,https://cdoc.colorado.gov/resources/covid-19-faq-and-updates,3,,0,,125,84,39.73493736,-105.171343
state,Colorado,COLORADO STATE PENITENTIARY,4/23/2021,https://cdoc.colorado.gov/resources/covid-19-faq-and-updates,156,,0,,700,683,38.44080528,-105.1580096
state,Colorado,COLORADO TERRITORIAL CORRECTIONAL FACILITY,4/23/2021,https://cdoc.colorado.gov/resources/covid-19-faq-and-updates,576,,5,,951,611,38.43802317,-105.2486951
state,Colorado,CROWLEY COUNTY CORRECTIONAL FACILITY,4/23/2021,https://cdoc.colorado.gov/resources/covid-19-faq-and-updates,861,,1,,1826,1505,38.15673868,-103.9573023
state,Colorado,DELTA CORRECTIONAL FACILITY,4/23/2021,https://cdoc.colorado.gov/resources/covid-19-faq-and-updates,157,,0,,703,230,38.70911617,-108.1486112
state,Colorado,DENVER RECEPTION DIAGNOSTIC CENTER,4/23/2021,https://cdoc.colorado.gov/resources/covid-19-faq-and-updates,41,,1,,584,482,39.76677716,-104.8608026
state,Colorado,DENVER WOMENS CORRECTIONAL FACILITY,4/23/2021,https://cdoc.colorado.gov/resources/covid-19-faq-and-updates,136,,0,,921,598,39.76510225,-104.860784
federal,Colorado,ENGLEWOOD FEDERAL CORRECTIONAL INSTITUTION,4/23/2021,https://www.bop.gov/mobile/about/population_statistics.jsp,632,,0,0,637,837,39.64192027,-105.1055266
federal,Colorado,FLORENCE ADMAX UNITED STATES PENITENTIARY,4/23/2021,https://www.bop.gov/mobile/about/population_statistics.jsp,5,,0,0,,353,38.3590017,-105.0990742
federal,Colorado,FLORENCE FEDERAL CORRECTIONAL INSTITUTION,4/23/2021,https://www.bop.gov/mobile/about/population_statistics.jsp,741,,2,0,,917,38.3614648,-105.1090225
federal,Colorado,FLORENCE HIGH UNITED STATES PENITENTIARY,4/23/2021,https://www.bop.gov/mobile/about/population_statistics.jsp,414,,2,0,,721,38.3603393,-105.099264
state,Colorado,FOUR MILE CORRECTIONAL FACILITY,4/23/2021,https://cdoc.colorado.gov/resources/covid-19-faq-and-updates,402,,0,,519,360,38.42976983,-105.1478509
state,Colorado,FREMONT CORRECTIONAL FACILITY,4/23/2021,https://cdoc.colorado.gov/resources/covid-19-faq-and-updates,770,,4,,1622,1152,38.4226424,-105.161617
state,Colorado,LA VISTA CORRECTIONAL FACILITY,4/23/2021,https://cdoc.colorado.gov/resources/covid-19-faq-and-updates,15,,0,,694,243,38.28484966,-104.6281974
state,Colorado,LIMON CORRECTIONAL FACILITY,4/23/2021,https://cdoc.colorado.gov/resources/covid-19-faq-and-updates,743,,0,,926,811,39.21808522,-103.6916854
state,Colorado,RIFLE CORRECTIONAL CENTER,4/23/2021,https://cdoc.colorado.gov/resources/covid-19-faq-and-updates,4,,0,,189,112,39.65016626,-107.7790488
state,Colorado,SAN CARLOS CORRECTIONAL FACILITY,4/23/2021,https://cdoc.colorado.gov/resources/covid-19-faq-and-updates,14,,0,,216,192,38.28008753,-104.6317795
state,Colorado,STATEWIDE,4/23/2021,https://www.colorado.gov/pacific/cdoc/covid-19-faq-and-updates,,1706,,,,,,
state,Colorado,STERLING CORRECTIONAL FACILITY,4/23/2021,https://cdoc.colorado.gov/resources/covid-19-faq-and-updates,1447,,10,,2504,1837,40.61123458,-103.1621015
state,Colorado,TRINIDAD CORRECTIONAL FACILITY,4/23/2021,https://cdoc.colorado.gov/resources/covid-19-faq-and-updates,326,,0,,502,306,37.30034613,-104.2866571
state,Colorado,YOUTHFUL OFFENDER SYSTEM,4/23/2021,https://cdoc.colorado.gov/resources/covid-19-faq-and-updates,141,,0,,,7,38.27955439,-104.6274606
state,Connecticut,BRIDGEPORT CORRECTIONAL CENTER,4/23/2021,https://portal.ct.gov/DOC/Common-Elements/Common-Elements/Health-Information-and-Advisories,361,,,,689,651,41.1906143,-73.20106036
state,Connecticut,BROOKLYN CORRECTIONAL INSTITUTION,4/23/2021,https://portal.ct.gov/DOC/Common-Elements/Common-Elements/Health-Information-and-Advisories,157,,,,428,313,41.78416388,-71.95426216
state,Connecticut,CARL ROBINSON CORRECTIONAL INSTITUTION,4/23/2021,https://portal.ct.gov/DOC/Common-Elements/Common-Elements/Health-Information-and-Advisories,400,,,,1317,775,42.0156533,-72.515607
state,Connecticut,CHESHIRE CORRECTIONAL INSTITUTION,4/23/2021,https://portal.ct.gov/DOC/Common-Elements/Common-Elements/Health-Information-and-Advisories,406,,,,1147,978,41.52149124,-72.9017651
state,Connecticut,CORRIGAN RADGOWSKI CORRECTIONAL CENTER,4/23/2021,https://portal.ct.gov/DOC/Common-Elements/Common-Elements/Health-Information-and-Advisories,420,,,,734,766,41.45418432,-72.11217243
federal,Connecticut,DANBURY FEDERAL CORRECTIONAL INSTITUTION,4/23/2021,https://www.bop.gov/mobile/about/population_statistics.jsp,170,,1,0,815,620,41.4367642,-73.4675543
state,Connecticut,GARNER CORRECTIONAL INSTITUTION,4/23/2021,https://portal.ct.gov/DOC/Common-Elements/Common-Elements/Health-Information-and-Advisories,176,,,,543,487,41.40035888,-73.2721123
state,Connecticut,HARTFORD CORRECTIONAL CENTER,4/23/2021,https://portal.ct.gov/DOC/Common-Elements/Common-Elements/Health-Information-and-Advisories,411,,,,888,702,41.79362408,-72.66139948
state,Connecticut,MACDOUGALL WALKER CORRECTIONAL INSTITUTION,4/23/2021,https://portal.ct.gov/DOC/Common-Elements/Common-Elements/Health-Information-and-Advisories,743,,,,1471,1560,41.95048033,-72.6367468
state,Connecticut,MANSON YOUTH CORRECTIONAL CENTER,4/23/2021,https://portal.ct.gov/DOC/Common-Elements/Common-Elements/Health-Information-and-Advisories,27,,,,283,257,41.53050021,-72.89979775
state,Connecticut,NEW HAVEN CORRECTIONAL CENTER,4/23/2021,https://portal.ct.gov/DOC/Common-Elements/Common-Elements/Health-Information-and-Advisories,401,,,,683,690,41.31748057,-72.93997131
state,Connecticut,NORTHERN CORRECTIONAL INSTITUTION,4/23/2021,https://portal.ct.gov/DOC/Common-Elements/Common-Elements/Health-Information-and-Advisories,15,,,,78,70,42.0188064,-72.4948806
state,Connecticut,OSBORN CORRECTIONAL INSTITUTION,4/23/2021,https://portal.ct.gov/DOC/Common-Elements/Common-Elements/Health-Information-and-Advisories,557,,,,1253,902,42.01640023,-72.49693453
state,Connecticut,STATEWIDE,4/23/2021,https://portal.ct.gov/DOC/Common-Elements/Common-Elements/Health-Information-and-Advisories,,,19,,,,,
federal,Connecticut,WATKINSON HOUSE RRC HARTFORD,4/23/2021,https://www.bop.gov/coronavirus/,1,,0,0,,,,
state,Connecticut,WILLARD CYBULSKI CORRECTIONAL INSTITUTION,4/23/2021,https://portal.ct.gov/DOC/Common-Elements/Common-Elements/Health-Information-and-Advisories,109,,,,1090,326,42.0167978,-72.5062987
state,Connecticut,YORK CORRECTIONAL INSTITUTION,4/23/2021,https://portal.ct.gov/DOC/Common-Elements/Common-Elements/Health-Information-and-Advisories,252,,,,883,501,41.32308179,-72.23754189
state,Delaware,DELORES J BAYLOR WOMANS CORRECTIONAL INSTITUTION,4/19/2021,https://doc.delaware.gov/assets/documents/Confirmed_COVID_Cases.pdf,,,0,,394,,39.7039322,-75.58125772
state,Delaware,HOWARD R YOUNG CORRECTIONAL INSTITUTION,4/19/2021,https://doc.delaware.gov/assets/documents/Confirmed_COVID_Cases.pdf,,,0,,1658,,39.7412423,-75.5294058
state,Delaware,JAMES T VAUGHN CORRECTIONAL CENTER,4/19/2021,https://doc.delaware.gov/assets/documents/Confirmed_COVID_Cases.pdf,,,8,,2385,,39.33295451,-75.59958958
state,Delaware,PLUMMER COMMUNITY CORRECTIONS CENTER,4/19/2021,https://doc.delaware.gov/assets/documents/Confirmed_COVID_Cases.pdf,,,0,,130,,39.75664471,-75.52904371
state,Delaware,STATEWIDE,4/19/2021,https://doc.delaware.gov/assets/documents/Confirmed_COVID_Cases.pdf,1974,743,,,,,,
state,Delaware,SUSSEX COMMUNITY CORRECTIONS CENTER,4/19/2021,https://doc.delaware.gov/assets/documents/Confirmed_COVID_Cases.pdf,,,0,,308,,38.6596352,-75.3711832
state,Delaware,SUSSEX CORRECTIONAL INSTITUTION,4/19/2021,https://doc.delaware.gov/assets/documents/Confirmed_COVID_Cases.pdf,,,5,,1130,,38.665915,-75.3801231
federal,District of Columbia,CENTRAL OFFICE HEADQUARTERS,4/23/2021,https://www.bop.gov/coronavirus/,,,0,0,,,,
county,District of Columbia,COUNTY WIDE,4/23/2021,https://opendata.dc.gov/datasets/dc-covid-19-department-of-corrections/data?orderBy=DATE_REPORTED&orderByAsc=false,262,208,1,3,1358,,38.8834391,-76.97658549
state,Florida,APALACHEE CORRECTIONAL INSTITUTION,4/23/2021,http://ww11.doh.state.fl.us/comm/_partners/covid19_report_archive/correction-facilities-deaths/fdc_death_latest.pdf,,,1,0,1804,,30.71148316,-84.88818219
state,Florida,AVON PARK CORRECTIONAL INSTITUTION,4/23/2021,http://ww11.doh.state.fl.us/comm/_partners/covid19_report_archive/correction-facilities-deaths/fdc_death_latest.pdf,,,3,0,1543,,27.6462871,-81.4036521
state,Florida,BAKER CORRECTIONAL INSTITUTION,4/23/2021,http://ww11.doh.state.fl.us/comm/_partners/covid19_report_archive/correction-facilities-deaths/fdc_death_latest.pdf,,,1,0,1695,,30.21325143,-82.37451212
state,Florida,BAY CF,4/23/2021,http://ww11.doh.state.fl.us/comm/_partners/covid19_report_archive/correction-facilities-deaths/fdc_death_latest.pdf,,,2,0,964,,30.26570712,-85.50553247
state,Florida,BLACKWATER CF,4/23/2021,http://ww11.doh.state.fl.us/comm/_partners/covid19_report_archive/correction-facilities-deaths/fdc_death_latest.pdf,,,7,0,1977,,30.64568696,-86.95060909
state,Florida,CALHOUN CORRECTIONAL INSTITUTION,4/23/2021,http://ww11.doh.state.fl.us/comm/_partners/covid19_report_archive/correction-facilities-deaths/fdc_death_latest.pdf,,,3,0,1808,,30.40585,-85.06394467
state,Florida,CENTRAL FLORIDA RECEPTION CENTER,4/23/2021,http://ww11.doh.state.fl.us/comm/_partners/covid19_report_archive/correction-facilities-deaths/fdc_death_latest.pdf,,,5,0,2422,,28.45327514,-81.15900956
state,Florida,CENTURY CORRECTIONAL INSTITUTION,4/23/2021,http://ww11.doh.state.fl.us/comm/_partners/covid19_report_archive/correction-facilities-deaths/fdc_death_latest.pdf,,,3,0,1514,,30.95817641,-87.29950017
state,Florida,CHARLOTTE CORRECTIONAL INSTITUTION,4/23/2021,http://ww11.doh.state.fl.us/comm/_partners/covid19_report_archive/correction-facilities-deaths/fdc_death_latest.pdf,,,0,0,1203,,26.8036079,-81.90380995
federal,Florida,COLEMAN I UNITED STATES PENITENTIARY,4/23/2021,https://www.bop.gov/mobile/about/population_statistics.jsp,92,,0,0,1245,1229,28.7737905,-82.00445251
federal,Florida,COLEMAN II UNITED STATES PENITENTIARY,4/23/2021,https://www.bop.gov/mobile/about/population_statistics.jsp,213,,1,0,1374,897,28.7628994,-82.0011646
federal,Florida,COLEMAN LOW FEDERAL CORRECTIONAL INSTITUTION,4/23/2021,https://www.bop.gov/mobile/about/population_statistics.jsp,244,,1,1,2415,1672,28.7692474,-82.010479
federal,Florida,COLEMAN MEDIUM FEDERAL CORRECTIONAL INSTITUTION,4/23/2021,https://www.bop.gov/mobile/about/population_statistics.jsp,322,,3,0,1486,1341,28.7662507,-82.00753865
state,Florida,COLUMBIA CORRECTIONAL INSTITUTION,4/23/2021,http://ww11.doh.state.fl.us/comm/_partners/covid19_report_archive/correction-facilities-deaths/fdc_death_latest.pdf,,,10,0,2906,,30.19252797,-82.50773893
state,Florida,CROSS CITY CI,4/23/2021,http://ww11.doh.state.fl.us/comm/_partners/covid19_report_archive/correction-facilities-deaths/fdc_death_latest.pdf,,,3,0,1044,,29.63475364,-83.09887133
state,Florida,DADE CORRECTIONAL INSTITUTION,4/23/2021,http://ww11.doh.state.fl.us/comm/_partners/covid19_report_archive/correction-facilities-deaths/fdc_death_latest.pdf,,,10,0,1440,,25.4154012,-80.4999188
state,Florida,DESOTO ANNEX,4/23/2021,http://ww11.doh.state.fl.us/comm/_partners/covid19_report_archive/correction-facilities-deaths/fdc_death_latest.pdf,,,0,0,1797,,27.20934,-81.66191
federal,Florida,DISMAS CHARITIES INC RRC DANIA,4/23/2021,https://www.bop.gov/coronavirus/,1,,0,0,,,,
federal,Florida,DISMAS CHARITIES OF ORLANDO,4/23/2021,https://www.bop.gov/coronavirus/,4,,0,0,,,28.619095,-81.437247
state,Florida,EVERGLADES CORRECTIONAL INSTITUTION,4/23/2021,http://ww11.doh.state.fl.us/comm/_partners/covid19_report_archive/correction-facilities-deaths/fdc_death_latest.pdf,,,6,0,2178,,25.75086336,-80.48896138
state,Florida,FLORIDA STATE PRISON,4/23/2021,http://ww11.doh.state.fl.us/comm/_partners/covid19_report_archive/correction-facilities-deaths/fdc_death_latest.pdf,,,0,0,2106,,30.0584396,-82.1836504
state,Florida,FLORIDA WOMENS RECEPTION CENTER,4/23/2021,http://ww11.doh.state.fl.us/comm/_partners/covid19_report_archive/correction-facilities-deaths/fdc_death_latest.pdf,,,4,1,898,,29.30979922,-82.18626021
state,Florida,FRANKLIN CORRECTIONAL INSTITUTION,4/23/2021,http://ww11.doh.state.fl.us/comm/_partners/covid19_report_archive/correction-facilities-deaths/fdc_death_latest.pdf,,,1,0,1227,,29.87797428,-84.64585656
state,Florida,GADSDEN CF,4/23/2021,http://ww11.doh.state.fl.us/comm/_partners/covid19_report_archive/correction-facilities-deaths/fdc_death_latest.pdf,,,0,0,1049,,30.5897214,-84.65558376
state,Florida,GRACEVILLE CF,4/23/2021,http://ww11.doh.state.fl.us/comm/_partners/covid19_report_archive/correction-facilities-deaths/fdc_death_latest.pdf,,,6,0,264,,30.94829087,-85.49222414
state,Florida,GULF CORRECTIONAL INSTITUTION,4/23/2021,http://ww11.doh.state.fl.us/comm/_partners/covid19_report_archive/correction-facilities-deaths/fdc_death_latest.pdf,,,1,2,1070,,30.17512766,-85.26724893
state,Florida,HAMILTON CORRECTIONAL INSTITUTION,4/23/2021,http://ww11.doh.state.fl.us/comm/_partners/covid19_report_archive/correction-facilities-deaths/fdc_death_latest.pdf,,,2,0,2257,,30.504668,-82.9631921
state,Florida,HARDEE CORRECTIONAL INSTITUTION,4/23/2021,http://ww11.doh.state.fl.us/comm/_partners/covid19_report_archive/correction-facilities-deaths/fdc_death_latest.pdf,,,0,0,1606,,27.59369353,-82.00687498
state,Florida,HERNANDO CORRECTIONAL INSTITUTION,4/23/2021,http://ww11.doh.state.fl.us/comm/_partners/covid19_report_archive/correction-facilities-deaths/fdc_death_latest.pdf,,,0,0,436,,28.48302199,-82.45443373
federal,Florida,HILLSBOROUGH COUNTY RRC TAMPA,4/23/2021,https://www.bop.gov/coronavirus/,7,,0,0,,,,
state,Florida,HOLMES CORRECTIONAL INSTITUTION,4/23/2021,http://ww11.doh.state.fl.us/comm/_partners/covid19_report_archive/correction-facilities-deaths/fdc_death_latest.pdf,,,1,0,1444,,30.75545064,-85.6701594
state,Florida,HOMESTEAD CORRECTIONAL INSTITUTION,4/23/2021,http://ww11.doh.state.fl.us/comm/_partners/covid19_report_archive/correction-facilities-deaths/fdc_death_latest.pdf,,,3,0,707,,25.41299306,-80.49729982
state,Florida,JACKSON CORRECTIONAL INSTITUTION,4/23/2021,http://ww11.doh.state.fl.us/comm/_partners/covid19_report_archive/correction-facilities-deaths/fdc_death_latest.pdf,,,0,1,2331,,30.96872589,-85.16860405
federal,Florida,JACKSONVILLE RESIDENTIAL REENTRY CENTER,4/23/2021,https://www.bop.gov/coronavirus/,4,,0,0,,,30.3383059,-81.712194
state,Florida,JEFFERSON CORRECTIONAL INSTITUTION,4/23/2021,http://ww11.doh.state.fl.us/comm/_partners/covid19_report_archive/correction-facilities-deaths/fdc_death_latest.pdf,,,0,0,783,,30.50973618,-83.80157593
state,Florida,LAKE CITY CF,4/23/2021,http://ww11.doh.state.fl.us/comm/_partners/covid19_report_archive/correction-facilities-deaths/fdc_death_latest.pdf,,,0,0,876,,30.19252797,-82.50773893
state,Florida,LAKE CORRECTIONAL INSTITUTION,4/23/2021,http://ww11.doh.state.fl.us/comm/_partners/covid19_report_archive/correction-facilities-deaths/fdc_death_latest.pdf,,,1,0,1006,,28.62049362,-81.76642774
state,Florida,LANCASTER CORRECTIONAL INSTITUTION,4/23/2021,http://ww11.doh.state.fl.us/comm/_partners/covid19_report_archive/correction-facilities-deaths/fdc_death_latest.pdf,,,1,0,720,,29.60801197,-82.8634739
state,Florida,LAWTEY CORRECTIONAL INSTITUTION,4/23/2021,http://ww11.doh.state.fl.us/comm/_partners/covid19_report_archive/correction-facilities-deaths/fdc_death_latest.pdf,,,0,0,804,,30.0339212,-82.07236464
state,Florida,LIBERTY CORRECTIONAL INSTITUTION,4/23/2021,http://ww11.doh.state.fl.us/comm/_partners/covid19_report_archive/correction-facilities-deaths/fdc_death_latest.pdf,,,3,0,1771,,30.46383683,-84.85588125
state,Florida,LOWELL CORRECTIONAL INSTITUTION,4/23/2021,http://ww11.doh.state.fl.us/comm/_partners/covid19_report_archive/correction-facilities-deaths/fdc_death_latest.pdf,,,2,0,2405,,29.31079789,-82.20039763
state,Florida,MADISON CORRECTIONAL INSTITUTION,4/23/2021,http://ww11.doh.state.fl.us/comm/_partners/covid19_report_archive/correction-facilities-deaths/fdc_death_latest.pdf,,,2,1,1277,,30.44008751,-83.42161169
federal,Florida,MARIANNA FEDERAL CORRECTIONAL INSTITUTION,4/23/2021,https://www.bop.gov/mobile/about/population_statistics.jsp,342,,0,0,,531,30.8267247,-85.1907807
state,Florida,MARION CORRECTIONAL INSTITUTION,4/23/2021,http://ww11.doh.state.fl.us/comm/_partners/covid19_report_archive/correction-facilities-deaths/fdc_death_latest.pdf,,,0,0,1569,,29.30810089,-82.17502385
state,Florida,MARTIN CORRECTIONAL INSTITUTION,4/23/2021,http://ww11.doh.state.fl.us/comm/_partners/covid19_report_archive/correction-facilities-deaths/fdc_death_latest.pdf,,,0,1,1720,,27.19661972,-80.48487746
state,Florida,MAYO ANNEX,4/23/2021,http://ww11.doh.state.fl.us/comm/_partners/covid19_report_archive/correction-facilities-deaths/fdc_death_latest.pdf,,,0,0,1399,,30.1384625,-83.30514217
federal,Florida,MIAMI FEDERAL CORRECTIONAL INSTITUTION,4/23/2021,https://www.bop.gov/mobile/about/population_statistics.jsp,238,,1,0,931,680,25.61832698,-80.41039062
federal,Florida,MIAMI FEDERAL DETENTION CENTER,4/23/2021,https://www.bop.gov/mobile/about/population_statistics.jsp,139,,2,0,1389,1129,25.7784897,-80.19323747
state,Florida,MOORE HAVEN CF,4/23/2021,http://ww11.doh.state.fl.us/comm/_partners/covid19_report_archive/correction-facilities-deaths/fdc_death_latest.pdf,,,1,0,964,,26.83843221,-81.12018204
state,Florida,NEW RIVER CORRECTIONAL INSTITUTION,4/23/2021,http://ww11.doh.state.fl.us/comm/_partners/covid19_report_archive/correction-facilities-deaths/fdc_death_latest.pdf,,,3,0,1255,,30.0628479,-82.17809153
state,Florida,NORTHWEST FLORIDA RECEPTION CENTER,4/23/2021,http://ww11.doh.state.fl.us/comm/_partners/covid19_report_archive/correction-facilities-deaths/fdc_death_latest.pdf,,,1,0,3127,,30.52072999,-85.65969841
state,Florida,OKALOOSA CORRECTIONAL INSTITUTION,4/23/2021,http://ww11.doh.state.fl.us/comm/_partners/covid19_report_archive/correction-facilities-deaths/fdc_death_latest.pdf,,,2,0,1110,,30.69681196,-86.52733104
state,Florida,OKEECHOBEE CORRECTIONAL INSTITUTION,4/23/2021,http://ww11.doh.state.fl.us/comm/_partners/covid19_report_archive/correction-facilities-deaths/fdc_death_latest.pdf,,,6,0,2178,,27.39606954,-80.78444465
federal,Florida,PENSACOLA FEDERAL PRISON CAMP,4/23/2021,https://www.bop.gov/mobile/about/population_statistics.jsp,58,,0,0,,320,30.4432945,-87.2377179
state,Florida,POLK CORRECTIONAL INSTITUTION,4/23/2021,http://ww11.doh.state.fl.us/comm/_partners/covid19_report_archive/correction-facilities-deaths/fdc_death_latest.pdf,,,1,0,1381,,28.19151724,-81.78675795
state,Florida,PUTNAM CORRECTIONAL INSTITUTION,4/23/2021,http://ww11.doh.state.fl.us/comm/_partners/covid19_report_archive/correction-facilities-deaths/fdc_death_latest.pdf,,,0,0,450,,29.64617008,-81.58778592
state,Florida,RECEPTION MEDICAL CENTER,4/23/2021,http://ww11.doh.state.fl.us/comm/_partners/covid19_report_archive/correction-facilities-deaths/fdc_death_latest.pdf,,,45,2,2386,,29.98965556,-82.35918381
federal,Florida,RIVERSIDE HOUSE MIAMI FL,4/23/2021,https://www.bop.gov/coronavirus/,8,,0,0,,,25.775332,-80.21293
federal,Florida,SALVATION ARMY FORT MYERS FLORIDA,4/23/2021,https://www.bop.gov/coronavirus/,1,,0,0,,,,
federal,Florida,SALVATION ARMY RRC WEST PALM BEACH,4/23/2021,https://www.bop.gov/coronavirus/,12,,1,0,,,,
state,Florida,SANTA ROSA CI,4/23/2021,http://ww11.doh.state.fl.us/comm/_partners/covid19_report_archive/correction-facilities-deaths/fdc_death_latest.pdf,,,0,0,1441,,30.64561525,-86.96742857
state,Florida,SOUTH BAY CF,4/23/2021,http://ww11.doh.state.fl.us/comm/_partners/covid19_report_archive/correction-facilities-deaths/fdc_death_latest.pdf,,,8,0,1924,,26.65774766,-80.71928984
state,Florida,SOUTH FLORIDA RECEPTION CENTER,4/23/2021,http://ww11.doh.state.fl.us/comm/_partners/covid19_report_archive/correction-facilities-deaths/fdc_death_latest.pdf,,,26,0,1531,,25.80587656,-80.42638712
county,Florida,ST LUCIE COUNTY JAIL,4/18/2021,https://www.stluciesheriff.com/288/COVID-19-Information,,,,,808,1272,,
state,Florida,STATEWIDE,4/23/2021,http://www.dc.state.fl.us/comm/covid-19.html,18053,5876,215,,,,,
state,Florida,SUMTER CORRECTIONAL INSTITUTION,4/23/2021,http://ww11.doh.state.fl.us/comm/_partners/covid19_report_archive/correction-facilities-deaths/fdc_death_latest.pdf,,,3,0,1324,,28.61748387,-82.20754297
state,Florida,SUWANNEE CORRECTIONAL INSTITUTION,4/23/2021,http://ww11.doh.state.fl.us/comm/_partners/covid19_report_archive/correction-facilities-deaths/fdc_death_latest.pdf,,,7,0,2043,,30.23819413,-82.87311813
federal,Florida,TALLAHASSEE FEDERAL CORRECTIONAL INSTITUTION,4/23/2021,https://www.bop.gov/mobile/about/population_statistics.jsp,395,,0,0,925,827,30.44364798,-84.22253719
state,Florida,TAYLOR CORRECTIONAL INSTITUTION,4/23/2021,http://ww11.doh.state.fl.us/comm/_partners/covid19_report_archive/correction-facilities-deaths/fdc_death_latest.pdf,,,4,1,2264,,30.040944,-83.71342
state,Florida,TOMOKA CORRECTIONAL INSTITUTION,4/23/2021,http://ww11.doh.state.fl.us/comm/_partners/covid19_report_archive/correction-facilities-deaths/fdc_death_latest.pdf,,,2,0,1497,,29.15157094,-81.15726813
state,Florida,UNION CORRECTIONAL INSTITUTION,4/23/2021,http://ww11.doh.state.fl.us/comm/_partners/covid19_report_archive/correction-facilities-deaths/fdc_death_latest.pdf,,,15,0,1720,,30.06674635,-82.19278712
state,Florida,WAKULLA CORRECTIONAL INSTITUTION,4/23/2021,http://ww11.doh.state.fl.us/comm/_partners/covid19_report_archive/correction-facilities-deaths/fdc_death_latest.pdf,,,6,0,2976,,30.2614929,-84.1748045
state,Florida,WALTON CORRECTIONAL INSTITUTION,4/23/2021,http://ww11.doh.state.fl.us/comm/_partners/covid19_report_archive/correction-facilities-deaths/fdc_death_latest.pdf,,,1,0,1437,,30.77868009,-86.10318532
state,Florida,ZEPHYRHILLS CORRECTIONAL INSTITUTION,4/23/2021,http://ww11.doh.state.fl.us/comm/_partners/covid19_report_archive/correction-facilities-deaths/fdc_death_latest.pdf,,,4,0,603,,28.19909791,-82.19869217
state,Georgia,APPLING INTEGRATED TREATMENT FACILITY,4/23/2021,http://www.dcor.state.ga.us/content/CVD_Dashboard,15,3,0,0,191,,31.8050704,-82.40883899
state,Georgia,ATLANTA TRANSITIONAL CENTER,4/23/2021,http://www.dcor.state.ga.us/content/CVD_Dashboard,17,4,0,0,281,244,33.77270217,-84.3762642
federal,Georgia,ATLANTA UNITED STATES PENITENTIARY,4/23/2021,https://www.bop.gov/mobile/about/population_statistics.jsp,222,,2,0,2093,1851,33.71070018,-84.36897923
state,Georgia,AUGUSTA STATE MEDICAL PRISON,4/23/2021,http://www.dcor.state.ga.us/content/CVD_Dashboard,245,115,6,0,1160,1051,33.43287905,-82.18852112
state,Georgia,AUGUSTA TRANSITIONAL CENTER,4/23/2021,http://www.dcor.state.ga.us/content/CVD_Dashboard,15,12,0,0,226,206,33.46676876,-81.96605692
state,Georgia,AUTRY STATE PRISON,4/23/2021,http://www.dcor.state.ga.us/content/CVD_Dashboard,106,23,3,0,1715,989,31.18946471,-84.14510952
state,Georgia,BACON PROBATION DETENTION CENTER,4/23/2021,http://www.dcor.state.ga.us/content/CVD_Dashboard,26,16,0,0,232,,31.53308262,-82.44987705
state,Georgia,BAINBRIDGE PROBATION SUBSTANCE ABUSE TREATMENT,4/23/2021,http://www.dcor.state.ga.us/content/CVD_Dashboard,83,27,0,0,,,30.98252995,-84.63677462
state,Georgia,BALDWIN STATE PRISON,4/23/2021,http://www.dcor.state.ga.us/content/CVD_Dashboard,31,44,2,0,953,887,33.0250608,-83.2213613
state,Georgia,BLECKLEY PROBATION SUBSTANCE ABUSE TREATMENT CENTER,4/23/2021,http://www.dcor.state.ga.us/content/CVD_Dashboard,66,20,0,0,,,,
state,Georgia,BULLOCH COUNTY CORRECTIONAL INSTITUTION,4/23/2021,http://www.dcor.state.ga.us/content/CVD_Dashboard,0,0,0,0,,134,,
state,Georgia,BURRUSS CORRECTIONAL TRAINING CENTER,4/23/2021,http://www.dcor.state.ga.us/content/CVD_Dashboard,28,23,1,0,444,519,33.05554556,-83.97538536
state,Georgia,CALHOUN STATE PRISON,4/23/2021,http://www.dcor.state.ga.us/content/CVD_Dashboard,59,32,1,1,1638,1551,31.53975718,-84.6166883
state,Georgia,CARROLL COUNTY CORRECTIONAL INSTITUTION,4/23/2021,http://www.dcor.state.ga.us/content/CVD_Dashboard,18,0,0,0,249,194,33.57869711,-85.04659773
state,Georgia,CENTRAL STATE PRISON,4/23/2021,http://www.dcor.state.ga.us/content/CVD_Dashboard,35,51,0,0,1136,1048,32.77682714,-83.75181934
state,Georgia,CLARKE COUNTY CORRECTIONAL INSTITUTION,4/23/2021,http://www.dcor.state.ga.us/content/CVD_Dashboard,17,0,0,0,126,127,33.94472297,-83.33031431
state,Georgia,CLAYTON COUNTY CORRECTIONAL INSTITUTION,4/23/2021,http://www.dcor.state.ga.us/content/CVD_Dashboard,15,0,0,0,,182,,
state,Georgia,CLAYTON TRANSITIONAL CENTER,4/23/2021,http://www.dcor.state.ga.us/content/CVD_Dashboard,7,9,0,0,379,318,33.62430193,-84.3976813
state,Georgia,COASTAL STATE PRISON,4/23/2021,http://www.dcor.state.ga.us/content/CVD_Dashboard,71,25,6,0,1638,1044,32.13759217,-81.18656693
state,Georgia,COFFEE CORRECTIONAL FACILITY,4/23/2021,http://www.dcor.state.ga.us/content/CVD_Dashboard,235,0,5,0,2657,2226,31.53063543,-82.63791259
state,Georgia,COLQUITT COUNTY CORRECTIONAL INSTITUTION,4/23/2021,http://www.dcor.state.ga.us/content/CVD_Dashboard,11,0,0,0,191,129,31.12973082,-83.70786594
state,Georgia,COLUMBUS TRANSITIONAL CENTER,4/23/2021,http://www.dcor.state.ga.us/content/CVD_Dashboard,8,5,0,0,139,135,32.49407873,-84.86892761
state,Georgia,COLWELL PROBATION DETENTION CENTER,4/23/2021,http://www.dcor.state.ga.us/content/CVD_Dashboard,25,6,0,0,,,,
state,Georgia,COWETA COUNTY CORRECTIONAL INSTITUTION,4/23/2021,http://www.dcor.state.ga.us/content/CVD_Dashboard,84,0,0,0,215,173,33.39536115,-84.82112952
federal,Georgia,CSC DISMAS CHARITIES RRC ATLANTA,4/23/2021,https://www.bop.gov/coronavirus/,2,,0,0,,,,
state,Georgia,DECATUR COUNTY CORRECTIONAL INSTITUTION,4/23/2021,http://www.dcor.state.ga.us/content/CVD_Dashboard,2,0,0,0,195,135,30.90775178,-84.60333237
state,Georgia,DODGE STATE PRISON,4/23/2021,http://www.dcor.state.ga.us/content/CVD_Dashboard,39,32,3,1,1228,1112,32.3942334,-83.16745955
state,Georgia,DOOLY STATE PRISON,4/23/2021,http://www.dcor.state.ga.us/content/CVD_Dashboard,22,24,3,0,1661,1504,32.28092423,-83.71567596
state,Georgia,EFFINGHAM COUNTY CORRECTIONAL INSTITUTION,4/23/2021,http://www.dcor.state.ga.us/content/CVD_Dashboard,49,0,0,0,,169,,
state,Georgia,EMANUEL PROBATION DETENTION CENTER,4/23/2021,http://www.dcor.state.ga.us/content/CVD_Dashboard,12,8,0,0,,,32.57167374,-82.16113585
state,Georgia,EMANUEL WOMENS FACILITY,4/23/2021,http://www.dcor.state.ga.us/content/CVD_Dashboard,29,24,0,0,395,260,32.61303825,-82.3564078
state,Georgia,FLOYD COUNTY CORRECTIONAL INSTITUTION,4/23/2021,http://www.dcor.state.ga.us/content/CVD_Dashboard,0,0,0,0,,306,,
state,Georgia,GEORGIA DIAGNOSTIC AND CLASSIFICATION PRISON,4/23/2021,http://www.dcor.state.ga.us/content/CVD_Dashboard,218,68,6,0,3371,3469,33.22107373,-84.06161828
state,Georgia,GEORGIA DIAGNOSTIC AND CLASSIFICATION PRISON SPECIAL MANAGEMENT UNIT,4/23/2021,http://www.dcor.state.ga.us/content/CVD_Dashboard,0,12,0,0,3371,,33.22107373,-84.06161828
state,Georgia,GEORGIA STATE PRISON,4/23/2021,http://www.dcor.state.ga.us/content/CVD_Dashboard,31,40,3,0,1454,1350,32.00512895,-82.16473427
state,Georgia,GWINNETT COUNTY CORRECTIONAL INSTITUTION,4/23/2021,http://www.dcor.state.ga.us/content/CVD_Dashboard,71,0,0,0,,123,,
state,Georgia,HALL COUNTY CORRECTIONAL INSTITUTION,4/23/2021,http://www.dcor.state.ga.us/content/CVD_Dashboard,3,0,0,0,194,126,34.24037727,-83.81411093
state,Georgia,HANCOCK STATE PRISON,4/23/2021,http://www.dcor.state.ga.us/content/CVD_Dashboard,128,23,0,0,1143,943,33.24549405,-82.95092313
state,Georgia,HARRIS COUNTY CORRECTIONAL INSTITUTION,4/23/2021,http://www.dcor.state.ga.us/content/CVD_Dashboard,3,0,0,0,154,130,32.76447267,-84.86400695
state,Georgia,HAYS STATE PRISON,4/23/2021,http://www.dcor.state.ga.us/content/CVD_Dashboard,43,36,0,0,1065,995,34.50768663,-85.31195302
state,Georgia,HELMS FACILITY,4/23/2021,http://www.dcor.state.ga.us/content/CVD_Dashboard,0,5,0,0,28,15,33.68857362,-84.33823463
state,Georgia,HUDSON TRANSITIONAL CENTER,4/23/2021,http://www.dcor.state.ga.us/content/CVD_Dashboard,2,1,0,0,,150,,
state,Georgia,JACKSON COUNTY CORRECTIONAL INSTITUTION,4/23/2021,http://www.dcor.state.ga.us/content/CVD_Dashboard,0,0,0,0,154,110,34.15197172,-83.55731447
state,Georgia,JEFFERSON COUNTY CORRECTIONAL INSTITUTION,4/23/2021,http://www.dcor.state.ga.us/content/CVD_Dashboard,4,0,0,0,147,152,33.02109834,-82.40712914
state,Georgia,JENKINS CORRECTIONAL CENTER,4/23/2021,http://www.dcor.state.ga.us/content/CVD_Dashboard,31,0,4,0,,954,,
state,Georgia,JOHNSON STATE PRISON,4/23/2021,http://www.dcor.state.ga.us/content/CVD_Dashboard,89,24,2,0,1583,1323,32.74353362,-82.70234985
state,Georgia,LEE ARRENDALE STATE PRISON,4/23/2021,http://www.dcor.state.ga.us/content/CVD_Dashboard,103,44,0,0,1596,1206,34.45106681,-83.59596645
state,Georgia,LEE ARRENDALE TRANSITIONAL CENTER,4/23/2021,http://www.dcor.state.ga.us/content/CVD_Dashboard,1,3,0,0,,136,,
state,Georgia,LEE STATE PRISON,4/23/2021,http://www.dcor.state.ga.us/content/CVD_Dashboard,28,47,2,0,740,529,31.76369451,-84.19354919
state,Georgia,LONG UNIT,4/23/2021,http://www.dcor.state.ga.us/content/CVD_Dashboard,9,17,1,0,,122,,
state,Georgia,MACON STATE PRISON,4/23/2021,http://www.dcor.state.ga.us/content/CVD_Dashboard,35,61,2,0,1703,1470,32.25930659,-84.09144003
state,Georgia,MACON TRANSITIONAL CENTER,4/23/2021,http://www.dcor.state.ga.us/content/CVD_Dashboard,9,4,1,0,157,152,32.81494127,-83.63770702
state,Georgia,MCEVER PDC,4/23/2021,http://www.dcor.state.ga.us/content/CVD_Dashboard,33,16,0,0,,,32.46494728,-83.69501268
federal,Georgia,MCRAE CORRECTIONAL INSTITUTION,4/23/2021,https://www.bop.gov/mobile/about/population_statistics.jsp,,,1,0,1601,1508,32.05007042,-82.8715772
state,Georgia,METRO REENTRY FACILITY,4/23/2021,http://www.dcor.state.ga.us/content/CVD_Dashboard,4,21,0,0,229,163,33.687261,-84.336355
state,Georgia,METRO TRANSITIONAL CENTER,4/23/2021,http://www.dcor.state.ga.us/content/CVD_Dashboard,10,11,0,0,229,210,33.6885252,-84.336397
state,Georgia,MITCHELL COUNTY CORRECTIONAL INSTITUTION,4/23/2021,http://www.dcor.state.ga.us/content/CVD_Dashboard,3,0,0,0,144,118,31.2324018,-84.180085
state,Georgia,MONTGOMERY STATE PRISON,4/23/2021,http://www.dcor.state.ga.us/content/CVD_Dashboard,22,27,1,0,418,253,32.16187443,-82.56612123
state,Georgia,MUSCOGEE COUNTY CORRECTIONAL INSTITUTION,4/23/2021,http://www.dcor.state.ga.us/content/CVD_Dashboard,4,0,0,0,,377,,
state,Georgia,NORTHWEST RESIDENTIAL SUBSTANCE ABUSE TREATMENT,4/23/2021,http://www.dcor.state.ga.us/content/CVD_Dashboard,18,0,0,0,,,,
state,Georgia,PATTEN PROBATION DETENTION CENTER,4/23/2021,http://www.dcor.state.ga.us/content/CVD_Dashboard,15,12,0,0,,,31.03988304,-83.0617537
state,Georgia,PAULDING RESIDENTIAL SUBSTANCE ABUSE TREATMENT,4/23/2021,http://www.dcor.state.ga.us/content/CVD_Dashboard,50,27,0,0,150,,33.94976674,-84.81466644
state,Georgia,PHILLIPS STATE PRISON,4/23/2021,http://www.dcor.state.ga.us/content/CVD_Dashboard,112,48,1,0,1048,855,34.0942918,-83.9105205
state,Georgia,PHILLIPS TRANSITIONAL CENTER,4/23/2021,http://www.dcor.state.ga.us/content/CVD_Dashboard,9,3,0,0,194,192,34.09554623,-83.90946974
state,Georgia,PULASKI STATE PRISON,4/23/2021,http://www.dcor.state.ga.us/content/CVD_Dashboard,92,55,1,0,1162,839,32.3115199,-83.45723464
state,Georgia,RICHMOND COUNTY CORRECTIONAL INSTITUTION,4/23/2021,http://www.dcor.state.ga.us/content/CVD_Dashboard,12,0,0,0,280,167,33.37332514,-82.0392013
state,Georgia,RIVERBEND CORRECTIONAL FACILITY,4/23/2021,http://www.dcor.state.ga.us/content/CVD_Dashboard,18,0,3,0,1497,1175,33.02808425,-83.219548
state,Georgia,ROGERS STATE PRISON,4/23/2021,http://www.dcor.state.ga.us/content/CVD_Dashboard,19,27,0,0,1398,1237,32.00090161,-82.17994887
state,Georgia,RUTLEDGE STATE PRISON,4/23/2021,http://www.dcor.state.ga.us/content/CVD_Dashboard,26,26,2,0,601,543,32.49582796,-84.86617971
state,Georgia,SCREVEN COUNTY CORRECTIONAL INSTITUTION,4/23/2021,http://www.dcor.state.ga.us/content/CVD_Dashboard,0,0,0,0,148,99,32.75025999,-81.67027866
state,Georgia,SMITH STATE PRISON,4/23/2021,http://www.dcor.state.ga.us/content/CVD_Dashboard,26,20,1,0,1514,1410,31.97310836,-81.91578361
state,Georgia,SMITH TRANSITIONAL CENTER,4/23/2021,http://www.dcor.state.ga.us/content/CVD_Dashboard,10,3,0,0,199,149,32.17946064,-81.89434266
federal,Georgia,SOUTHEAST REGIONAL OFFICE,4/23/2021,https://www.bop.gov/coronavirus/,,,0,0,,,,
state,Georgia,SPALDING COUNTY CORRECTIONAL INSTITUTION,4/23/2021,http://www.dcor.state.ga.us/content/CVD_Dashboard,0,0,0,0,376,313,33.23601744,-84.29297557
state,Georgia,SUMTER COUNTY CORRECTIONAL INSTITUTION,4/23/2021,http://www.dcor.state.ga.us/content/CVD_Dashboard,0,0,0,0,,237,,
state,Georgia,TELFAIR STATE PRISON,4/23/2021,http://www.dcor.state.ga.us/content/CVD_Dashboard,79,30,6,0,1370,1188,32.08798443,-82.90954913
state,Georgia,TERRELL COUNTY CORRECTIONAL INSTITUTION,4/23/2021,http://www.dcor.state.ga.us/content/CVD_Dashboard,0,0,0,0,144,96,31.7420575,-84.41413376
state,Georgia,TREUTLEN PROBATION DETENTION CENTER,4/23/2021,http://www.dcor.state.ga.us/content/CVD_Dashboard,55,23,0,0,,,32.3624615,-82.60238104
state,Georgia,TURNER RESIDENTIAL SUBSTANCE ABUSE TREATMENT,4/23/2021,http://www.dcor.state.ga.us/content/CVD_Dashboard,35,15,0,0,,,31.6621587,-83.63393731
state,Georgia,VALDOSTA STATE PRISON,4/23/2021,http://www.dcor.state.ga.us/content/CVD_Dashboard,42,81,0,,1000,801,30.85995723,-83.34575403
state,Georgia,VALDOSTA TRANSITIONAL CENTER,4/23/2021,http://www.dcor.state.ga.us/content/CVD_Dashboard,6,13,0,0,164,150,30.80565871,-83.2675069
state,Georgia,WALKER STATE PRISON,4/23/2021,http://www.dcor.state.ga.us/content/CVD_Dashboard,64,30,1,0,406,373,34.8087205,-85.26194184
state,Georgia,WARE STATE PRISON,4/23/2021,http://www.dcor.state.ga.us/content/CVD_Dashboard,32,62,4,0,1485,1108,31.25673084,-82.39335661
state,Georgia,WASHINGTON STATE PRISON,4/23/2021,http://www.dcor.state.ga.us/content/CVD_Dashboard,27,7,0,0,1334,1427,32.98872379,-82.59490798
state,Georgia,WEST CENTRAL INTEGRATED TREATMENT FACILITY,4/23/2021,http://www.dcor.state.ga.us/content/CVD_Dashboard,41,28,0,0,,,33.11609815,-84.3610402
state,Georgia,WHEELER CORRECTIONAL FACILITY,4/23/2021,http://www.dcor.state.ga.us/content/CVD_Dashboard,172,0,13,0,2636,2179,32.1504927,-82.79500753
state,Georgia,WHITWORTH WOMENS FACILITY,4/23/2021,http://www.dcor.state.ga.us/content/CVD_Dashboard,21,22,1,0,,285,,
state,Georgia,WILCOX STATE PRISON,4/23/2021,http://www.dcor.state.ga.us/content/CVD_Dashboard,67,35,3,0,1789,1648,31.98502256,-83.30017247
state,Georgia,WOMENS PROBATION DETENTION CENTER,4/23/2021,http://www.dcor.state.ga.us/content/CVD_Dashboard,12,9,0,0,,,,
state,Hawaii,HALAWA CORRECTIONAL FACILITY,4/23/2021,https://dps.hawaii.gov/blog/2020/03/17/coronavirus-covid-19-information-and-resources/,546,,7,,852,,21.37379134,-157.8989822
state,Hawaii,HAWAII COMMUNITY CORRECTIONAL CENTER,4/23/2021,https://dps.hawaii.gov/blog/2020/03/17/coronavirus-covid-19-information-and-resources/,1,,0,,515,,19.71830866,-155.0989632
federal,Hawaii,HONOLULU FEDERAL DETENTION CENTER,4/23/2021,https://www.bop.gov/mobile/about/population_statistics.jsp,7,,0,0,,295,,
state,Hawaii,KAUAI COMMUNITY CORRECTIONAL CENTER,4/23/2021,https://dps.hawaii.gov/blog/2020/03/17/coronavirus-covid-19-information-and-resources/,0,,0,,159,,22.02515252,-159.3428192
state,Hawaii,KULANI CORRECTIONAL FACILITY,4/23/2021,https://dps.hawaii.gov/blog/2020/03/17/coronavirus-covid-19-information-and-resources/,0,,0,,184,,19.54917893,-155.3011053
state,Hawaii,MAUI COMMUNITY CORRECTIONAL CENTER,4/23/2021,https://dps.hawaii.gov/blog/2020/03/17/coronavirus-covid-19-information-and-resources/,95,,0,,452,,20.87701605,-156.4983753
state,Hawaii,OHAU COMMUNITY CORRECTIONAL CENTER,4/23/2021,https://dps.hawaii.gov/blog/2020/03/17/coronavirus-covid-19-information-and-resources/,457,,0,,1268,,21.32989382,-157.884874
state,Hawaii,SAGUARO CORRECTIONAL CENTER,4/23/2021,https://dps.hawaii.gov/blog/2020/03/17/coronavirus-covid-19-information-and-resources/,657,,2,,1617,,32.80930398,-111.5264356
state,Hawaii,WAIAWA CORRECTIONAL FACILITY,4/23/2021,https://dps.hawaii.gov/blog/2020/03/17/coronavirus-covid-19-information-and-resources/,213,,0,,202,,21.44465003,-157.9609092
state,Hawaii,WOMENS COMMUNITY CORRECTIONAL CENTER,4/23/2021,https://dps.hawaii.gov/blog/2020/03/17/coronavirus-covid-19-information-and-resources/,0,,0,,278,,21.37802504,-157.7484499
state,Idaho,CAPP,4/23/2021,https://www.idoc.idaho.gov/content/careers/covid-19,,,,,431,,43.46183741,-116.2357735
state,Idaho,CENTRAL OFFICE,4/23/2021,https://www.idoc.idaho.gov/content/careers/covid-19,,24,,,,,,
state,Idaho,DISTRICT 1,4/23/2021,https://www.idoc.idaho.gov/content/careers/covid-19,,6,,,,,,
state,Idaho,DISTRICT 3,4/23/2021,https://www.idoc.idaho.gov/content/careers/covid-19,,8,,,,,,
state,Idaho,DISTRICT 4,4/23/2021,https://www.idoc.idaho.gov/content/careers/covid-19,,16,,,,,,
state,Idaho,DISTRICT 5,4/23/2021,https://www.idoc.idaho.gov/content/careers/covid-19,,8,,,,,,
state,Idaho,EAST BOISE COMMUNITY REENTRY CENTER,4/23/2021,https://www.idoc.idaho.gov/content/careers/covid-19,,5,,,109,,43.60314093,-116.1638439
state,Idaho,IDAHO CORRECTIONAL INSTITUTION OROFINO,4/23/2021,https://www.idoc.idaho.gov/content/careers/covid-19,,43,,,576,,46.49197836,-116.2607095
state,Idaho,IDAHO FALLS COMMUNITY REENTRY CENTER,4/23/2021,https://www.idoc.idaho.gov/content/careers/covid-19,,5,,,95,,43.46230015,-112.0639693
state,Idaho,IDAHO MAXIMUM SECURITY INSTIUTION,4/23/2021,https://www.idoc.idaho.gov/content/careers/covid-19,,41,,,1473,,43.47938786,-116.2189574
state,Idaho,IDAHO STATE CORRECTIONAL CENTER,4/23/2021,https://www.idoc.idaho.gov/content/careers/covid-19,,95,,,2181,,43.47119944,-116.2375874
state,Idaho,IDAHO STATE CORRECTIONAL INSTITUTION,4/23/2021,https://www.idoc.idaho.gov/content/careers/covid-19,,101,,,1473,,43.47938786,-116.2189574
state,Idaho,NORTH IDAHO CORRRECTIONAL INSTIUTION,4/23/2021,https://www.idoc.idaho.gov/content/careers/covid-19,,15,,,409,,46.07917307,-116.4280588
state,Idaho,POCATELLO WOMENS CORRECTIONAL CENTER,4/23/2021,https://www.idoc.idaho.gov/content/careers/covid-19,,9,,,323,,42.84256222,-112.4506302
state,Idaho,SAINT ANTHONY WORK CAMP,4/23/2021,https://www.idoc.idaho.gov/content/careers/covid-19,,18,,,253,,43.96809846,-111.6935417
state,Idaho,SOUTH BOISE WOMENS CORRECTIONAL CENTER,4/23/2021,https://www.idoc.idaho.gov/content/careers/covid-19,,23,,,293,,43.48338,-116.23392
state,Idaho,SOUTH IDAHO CORRECTIONAL INSTIUTION,4/23/2021,https://www.idoc.idaho.gov/content/careers/covid-19,,31,,,1473,,43.47938786,-116.2189574
state,Idaho,STATEWIDE,4/23/2021,https://www.idoc.idaho.gov/content/careers/covid-19,4242,,5,,,,,
state,Idaho,TREASURE VALLEY COMMUNITY REENTRY CENTER,4/23/2021,https://www.idoc.idaho.gov/content/careers/covid-19,,1,,,102,,43.6574178,-116.6678165
federal,Missouri,ALPHA HOUSE OF SPRINGFIELD,4/23/2021,https://www.bop.gov/coronavirus/,2,,0,0,,,37.22580565,-93.24936944
state,Illinois,BIG MUDDY RIVER CORRECTIONAL CENTER,4/23/2021,https://www2.illinois.gov/idoc/facilities/Pages/Covid19Response.aspx,371,105,,,1218,,38.13064497,-88.90835135
federal,Illinois,CENTRAL TERRITORIAL OF THE SALVATION ARMY DBA SALVATION ARMY CORRECTIONAL SER RRC CHICAGO,4/23/2021,https://www.bop.gov/coronavirus/,8,,0,0,,,41.8957344,-87.7096727
state,Illinois,CENTRALIA CORRECTIONAL CENTER,4/23/2021,https://www2.illinois.gov/idoc/facilities/Pages/Covid19Response.aspx,131,147,,,1209,,38.55384409,-89.19170102
federal,Illinois,CHICAGO METROPOLITAN CORRECTIONAL CENTER,4/23/2021,https://www.bop.gov/mobile/about/population_statistics.jsp,184,,0,0,668,553,41.87658453,-87.63048213
county,Illinois,COOK COUNTY JAIL,4/23/2021,https://www.cookcountysheriff.org/covid-19-cases-at-ccdoc/,1238,1221,10,5,8216,,41.8425,-87.6971
state,Illinois,CROSSROADS ADULT TRANSITION CENTER,4/23/2021,https://www2.illinois.gov/idoc/facilities/Pages/Covid19Response.aspx,5,1,,,325,,41.87048357,-87.70635938
state,Illinois,DANVILLE CORRECTIONAL CENTER,4/23/2021,https://www2.illinois.gov/idoc/facilities/Pages/Covid19Response.aspx,968,158,,,1605,,40.12956679,-87.53645593
state,Illinois,DECATUR CORRECTIONAL CENTER,4/23/2021,https://www2.illinois.gov/idoc/facilities/Pages/Covid19Response.aspx,84,55,,,535,,39.89511506,-88.92662636
state,Illinois,DIXON CORRECTIONAL INSTITUTE,4/23/2021,https://www2.illinois.gov/idoc/facilities/Pages/Covid19Response.aspx,590,304,,,2051,,41.8737451,-89.47817317
state,Illinois,EAST MOLINE CORRECTIONAL CENTER,4/23/2021,https://www2.illinois.gov/idoc/facilities/Pages/Covid19Response.aspx,399,88,,,1175,,41.53372905,-90.41912151
state,Illinois,ELGIN TREATMENT CENTER,4/23/2021,https://www2.illinois.gov/idoc/facilities/Pages/Covid19Response.aspx,1,18,,,18,,42.02130557,-88.28448575
state,Illinois,FOX VALLEY ADULT TRANSITION CENTER,4/23/2021,https://www2.illinois.gov/idoc/facilities/Pages/Covid19Response.aspx,4,10,,,127,,41.78792125,-88.3202916
state,Illinois,GENERAL OFFICE,4/23/2021,https://www2.illinois.gov/idoc/facilities/Pages/Covid19Response.aspx,0,29,,,,,,
state,Illinois,GRAHAM CORRECTIONAL CENTER,4/23/2021,https://www2.illinois.gov/idoc/facilities/Pages/Covid19Response.aspx,712,185,,,1803,,39.12648969,-89.47493262
federal,Illinois,GREENVILLE FCI,4/23/2021,https://www.bop.gov/mobile/about/population_statistics.jsp,675,,0,0,,979,,
state,Illinois,HILL CORRECTIONAL CENTER,4/23/2021,https://www2.illinois.gov/idoc/facilities/Pages/Covid19Response.aspx,375,94,,,1643,,40.93974548,-90.40695799
state,Illinois,ILLINOIS RIVER CORRECTIONAL CENTER,4/23/2021,https://www2.illinois.gov/idoc/facilities/Pages/Covid19Response.aspx,220,156,,,1770,,40.55672719,-90.08258486
state,Illinois,JACKSONVILLE CORRECTIONAL CENTER,4/23/2021,https://www2.illinois.gov/idoc/facilities/Pages/Covid19Response.aspx,473,171,,,965,,39.72668976,-90.17561449
state,Illinois,JOLIET TREATMENT CENTER,4/23/2021,https://www2.illinois.gov/idoc/facilities/Pages/Covid19Response.aspx,11,89,,,196,,41.51234669,-88.15264614
state,Illinois,KEWANEE LIFE SKILLS REENTRY CENTER,4/23/2021,https://www2.illinois.gov/idoc/facilities/Pages/Covid19Response.aspx,15,57,,,278,,41.25333209,-89.89171233
state,Illinois,LAWRENCE CORRECTIONAL CENTER,4/23/2021,https://www2.illinois.gov/idoc/facilities/Pages/Covid19Response.aspx,1038,222,,,2042,,38.72823,-87.90591
state,Illinois,LINCOLN CORRECTIONAL CENTER,4/23/2021,https://www2.illinois.gov/idoc/facilities/Pages/Covid19Response.aspx,275,90,,,964,,40.11823756,-89.38908259
state,Illinois,LOGAN CORRECTIONAL CENTER,4/23/2021,https://www2.illinois.gov/idoc/facilities/Pages/Covid19Response.aspx,596,238,,,1588,,40.1140649,-89.3881401
federal,Illinois,MARION UNITED STATES PENITENTIARY,4/23/2021,https://www.bop.gov/mobile/about/population_statistics.jsp,766,,2,0,1129,1135,37.66315314,-88.98406132
state,Illinois,MENARD CORRECTIONAL CENTER,4/23/2021,https://www2.illinois.gov/idoc/facilities/Pages/Covid19Response.aspx,241,298,,,1834,,37.91268569,-89.84197817
state,Illinois,MURPHYSBORO CORRECTIONAL CENTER,4/23/2021,https://www2.illinois.gov/idoc/facilities/Pages/Covid19Response.aspx,56,36,,,171,,,
state,Illinois,NORTH LAWNDALE ADULT TRANSITION CENTER,4/23/2021,https://www2.illinois.gov/idoc/facilities/Pages/Covid19Response.aspx,7,9,,,200,,41.868038,-87.697785
state,Illinois,PAROLE,4/23/2021,https://www2.illinois.gov/idoc/facilities/Pages/Covid19Response.aspx,0,53,,,,,,
federal,Illinois,PEKIN FEDERAL CORRECTIONAL INSTITUTION,4/23/2021,https://www.bop.gov/mobile/about/population_statistics.jsp,763,,0,0,,966,,
state,Illinois,PEORIA ADULT TRANSITION CENTER,4/23/2021,https://www2.illinois.gov/idoc/facilities/Pages/Covid19Response.aspx,14,20,,,244,,,
state,Illinois,PINCKNEYVILLE CORRECTIONAL CENTER,4/23/2021,https://www2.illinois.gov/idoc/facilities/Pages/Covid19Response.aspx,870,177,,,1901,,38.0866456,-89.3272605
state,Illinois,PONTIAC CORRECTIONAL CENTER,4/23/2021,https://www2.illinois.gov/idoc/facilities/Pages/Covid19Response.aspx,339,356,,,1160,,40.86928355,-88.63603689
state,Illinois,ROBINSON CORRECTIONAL CENTER,4/23/2021,https://www2.illinois.gov/idoc/facilities/Pages/Covid19Response.aspx,380,99,,,1121,,39.01935425,-87.69758953
state,Illinois,SHAWNEE CORRECTIONAL CENTER,4/23/2021,https://www2.illinois.gov/idoc/facilities/Pages/Covid19Response.aspx,277,104,,,1576,,37.40038459,-88.77535417
state,Illinois,SHERIDAN CORRECTIONAL CENTER,4/23/2021,https://www2.illinois.gov/idoc/facilities/Pages/Covid19Response.aspx,464,149,,,1670,,41.51604912,-88.68465975
state,Illinois,SOUTHWESTERN ILLINOIS CORRECTIONAL CENTER,4/23/2021,https://www2.illinois.gov/idoc/facilities/Pages/Covid19Response.aspx,48,101,,,598,,38.61691302,-90.0908182
state,Illinois,STATEVILLE CORRECTIONAL CENTER,4/23/2021,https://www2.illinois.gov/idoc/facilities/Pages/Covid19Response.aspx,305,195,,,1262,,41.57873778,-88.09456267
state,Illinois,STATEVILLE NORTHERN RECEPTION AND CLASSIFICATION CENTER,4/23/2021,https://www2.illinois.gov/idoc/facilities/Pages/Covid19Response.aspx,345,157,,,1173,,41.57873778,-88.09456267
state,Illinois,TAYLORVILLE CORRECTIONAL CENTER,4/23/2021,https://www2.illinois.gov/idoc/facilities/Pages/Covid19Response.aspx,456,102,,,1028,,39.51525785,-89.2264661
federal,Illinois,THOMSON UNITED STATES PENITENTIARY,4/23/2021,https://www.bop.gov/mobile/about/population_statistics.jsp,497,,0,1,703,1251,41.97296619,-90.10929881
state,Illinois,VANDALIA CORRECTIONAL CENTER,4/23/2021,https://www2.illinois.gov/idoc/facilities/Pages/Covid19Response.aspx,497,147,,,1068,,39.01089284,-89.09608515
state,Illinois,VIENNA CORRECTIONAL CENTER,4/23/2021,https://www2.illinois.gov/idoc/facilities/Pages/Covid19Response.aspx,97,111,,,920,,37.40562486,-88.7701425
state,Illinois,WESTERN ILLINOIS CORRECTIONAL CENTER,4/23/2021,https://www2.illinois.gov/idoc/facilities/Pages/Covid19Response.aspx,213,114,,,1633,,39.96285696,-90.75396657
state,Indiana,BRANCHVILLE CORRECTIONAL FACILITY,4/23/2021,https://www.in.gov/idoc/3780.htm,255,66,1,0,1387,,38.15137828,-86.59980056
state,Indiana,CENTRAL OFFICE,4/23/2021,https://www.in.gov/idoc/3780.htm,,40,,0,,,,
state,Indiana,CHAIN OLAKES CORRECTIONAL FACILITY,4/23/2021,https://www.in.gov/idoc/3780.htm,83,5,0,0,135,,41.33701028,-85.35310253
state,Indiana,CORRECTIONAL INDUSTRIAL FACILITY,4/23/2021,https://www.in.gov/idoc/3780.htm,135,105,3,0,1458,,39.97598494,-85.77135909
state,Indiana,EDINBURGH CORRECTIONAL FACILITY,4/23/2021,https://www.in.gov/idoc/3780.htm,16,23,0,0,340,,39.35145302,-86.0386027
state,Indiana,HERITAGE TRAIL CORRECTIONAL FACILITY,4/23/2021,https://www.in.gov/idoc/3780.htm,61,33,0,0,857,,39.69366223,-86.40761718
state,Indiana,INDIANA STATE PRISON,4/23/2021,https://www.in.gov/idoc/3780.htm,72,113,2,0,2364,,41.70343089,-86.9173169
state,Indiana,INDIANA WOMENS PRISON,4/23/2021,https://www.in.gov/idoc/3780.htm,129,45,0,1,696,,39.80094018,-86.29189795
state,Indiana,LAPORTE JUVENILE CORRECTIONAL FACILITY,4/23/2021,https://www.in.gov/idoc/3780.htm,16,20,0,0,21,,41.61206231,-86.72292259
state,Indiana,LOGANSPORT JUVENILE CORRECTIONAL FACILITY,4/23/2021,https://www.in.gov/idoc/3780.htm,13,39,0,0,23,,40.74154606,-86.40152309
state,Indiana,MADISON CORRECTIONAL FACILITY,4/23/2021,https://www.in.gov/idoc/3780.htm,232,31,0,0,709,,38.74778116,-85.40047051
state,Indiana,MIAMI CORRECTIONAL FACILITY,4/23/2021,https://www.in.gov/idoc/3780.htm,251,98,11,1,3111,,40.6459301,-86.13530041
state,Indiana,NEW CASTLE CORRECTIONAL FACILITY,4/23/2021,https://www.in.gov/idoc/3780.htm,367,103,10,0,3130,,39.96237788,-85.37022541
state,Indiana,PENDLETON CORRECTIONAL FACILITY,4/23/2021,https://www.in.gov/idoc/3780.htm,167,87,4,0,1862,,39.98338112,-85.76085702
state,Indiana,PENDLETON JUVENILE CORRECTIONAL FACILITY,4/23/2021,https://www.in.gov/idoc/3780.htm,56,62,0,0,200,,39.96907067,-85.77458045
state,Indiana,PLAINFIELD CORRECTIONAL FACILITY,4/23/2021,https://www.in.gov/idoc/3780.htm,140,104,8,0,1499,,39.68899972,-86.41604046
state,Indiana,PUTNAMVILLE CORRECTIONAL FACILITY,4/23/2021,https://www.in.gov/idoc/3780.htm,280,111,3,1,2163,,39.56503726,-86.88666488
state,Indiana,RECEPTION AND DIAGNOSTIC CENTER,4/23/2021,https://www.in.gov/idoc/3780.htm,461,82,0,0,655,,39.68899972,-86.41604046
state,Indiana,ROCKVILLE CORRECTIONAL FACILITY,4/23/2021,https://www.in.gov/idoc/3780.htm,343,79,0,0,1139,,39.77431571,-87.25434717
state,Indiana,SOUTH BEND REENTRY CENTER,4/23/2021,https://www.in.gov/idoc/3780.htm,27,7,0,0,186,,,
federal,Indiana,TERRE HAUTE FEDERAL CORRECTIONAL INSTITUTION,4/23/2021,https://www.bop.gov/mobile/about/population_statistics.jsp,478,,4,0,,983,,
federal,Indiana,TERRE HAUTE UNITED STATES PENITENTIARY,4/23/2021,https://www.bop.gov/mobile/about/population_statistics.jsp,666,,2,0,1355,1193,39.40758139,-87.45452498
federal,Indiana,VOLUNTEERS OF AMERICA INC RRC INDIANAPOLIS,4/23/2021,https://www.bop.gov/coronavirus/,2,,0,0,,,,
state,Indiana,WABASH VALLEY CORRECTIONAL FACILITY,4/23/2021,https://www.in.gov/idoc/3780.htm,287,186,3,1,2102,,38.97792912,-87.40030287
state,Indiana,WESTVILLE CORRECTIONAL FACILITY,4/23/2021,https://www.in.gov/idoc/3780.htm,272,202,6,0,2989,,41.52575257,-86.90808495
state,Iowa,ANAMOSA STATE PENITENTIARY,4/23/2021,https://doc.iowa.gov/daily-statistics,870,155,6,,969,832,42.11129071,-91.29127202
state,Iowa,CLARINDA CORRECTIONAL FACILITY,4/23/2021,https://doc.iowa.gov/daily-statistics,605,62,1,,987,969,40.76249094,-95.03582563
state,Iowa,FORT DODGE CORRECTIONAL FACILITY,4/23/2021,https://doc.iowa.gov/daily-statistics,563,91,4,,1252,1177,42.48489252,-94.19609253
state,Iowa,IOWA CORRECTIONAL INSTIUTION FOR WOMEN,4/23/2021,https://doc.iowa.gov/daily-statistics,26,39,0,,711,490,41.66299579,-93.3661037
state,Iowa,IOWA MEDICAL AND CLASSIFICATION CENTER,4/23/2021,https://doc.iowa.gov/daily-statistics,537,108,5,,894,870,41.71369597,-91.61182585
state,Iowa,IOWA STATE PENITENTIARY,4/23/2021,https://doc.iowa.gov/daily-statistics,229,98,2,,688,712,40.65361883,-91.30326789
state,Iowa,MT PLEASANT CORRECTIONAL FACILITY,4/23/2021,https://doc.iowa.gov/daily-statistics,787,60,0,,1018,848,40.95581384,-91.53617358
state,Iowa,NEWTON CORRECTIONAL FACILITY,4/23/2021,https://doc.iowa.gov/daily-statistics,827,52,1,,924,1107,41.62717022,-93.05696851
state,Iowa,NORTH CENTRAL,4/23/2021,https://doc.iowa.gov/daily-statistics,391,34,0,,485,436,42.39222762,-94.60437667
county,Iowa,POLK COUNTY JAIL,4/23/2021,https://www.polkcountyiowa.gov/county-sheriff/news-press-releases/,12,2,,,911,,41.65332,-93.58793
state,Iowa,STATEWIDE,4/23/2021,https://doc.iowa.gov/COVID19,,,,2,,,,
state,Kansas,EL DORADO CORRECTIONAL FACILITY,4/23/2021,https://www.doc.ks.gov/kdoc-coronavirus-updates/kdoc-covid-19-status,979,233,2,1,2026,,37.80325673,-96.81713261
state,Kansas,ELLSWORTH CORRECTIONAL FACILITY,4/23/2021,https://www.doc.ks.gov/kdoc-coronavirus-updates/kdoc-covid-19-status,584,90,3,0,909,,38.74301147,-98.23215008
federal,Kansas,GEO REENTRY INC RRC LEAVENWORTH,4/23/2021,https://www.bop.gov/coronavirus/,17,,0,0,,,,
state,Kansas,HUTCHINSON CORRECTIONAL FACILITY,4/23/2021,https://www.doc.ks.gov/kdoc-coronavirus-updates/kdoc-covid-19-status,1379,288,3,1,1898,,38.04458476,-97.91073579
state,Kansas,KANSAS JUVENILE CORRECTIONAL COMPLEX,4/23/2021,https://www.doc.ks.gov/kdoc-coronavirus-updates/kdoc-covid-19-status,20,72,0,0,185,,39.09678729,-95.68423367
state,Kansas,LANSING CORRECTIONAL FACILITY,4/23/2021,https://www.doc.ks.gov/kdoc-coronavirus-updates/kdoc-covid-19-status,1009,170,5,2,1683,,39.25190411,-94.89130455
state,Kansas,LARNED CORRECTIONAL FACILITY,4/23/2021,https://www.doc.ks.gov/kdoc-coronavirus-updates/kdoc-covid-19-status,353,82,1,0,571,,38.17710787,-99.15101294
federal,Kansas,LEAVENWORTH UNITED STATES PENITENTIARY,4/23/2021,https://www.bop.gov/mobile/about/population_statistics.jsp,854,,2,0,1360,1378,39.33105504,-94.93580759
state,Kansas,NORTON CORRECTIONAL FACILITY,4/23/2021,https://www.doc.ks.gov/kdoc-coronavirus-updates/kdoc-covid-19-status,766,128,0,0,971,,39.84416321,-99.81637284
state,Kansas,TOPEKA CORRECTIONAL FACILITY,4/23/2021,https://www.doc.ks.gov/kdoc-coronavirus-updates/kdoc-covid-19-status,523,109,0,1,899,,39.04069275,-95.6254707
state,Kansas,WICHITA WORK RELEASE,4/23/2021,https://www.doc.ks.gov/kdoc-coronavirus-updates/kdoc-covid-19-status,81,25,0,0,251,,37.68209659,-97.33329523
state,Kansas,WINFIELD CORRECTIONAL FACILITY,4/23/2021,https://www.doc.ks.gov/kdoc-coronavirus-updates/kdoc-covid-19-status,429,87,2,1,612,,37.26426587,-96.97365125
federal,Kentucky,ASHLAND FEDERAL CORRECTIONAL INSTITUTION,4/23/2021,https://www.bop.gov/mobile/about/population_statistics.jsp,335,,6,0,,828,,
state,Kentucky,BELL COUNTY FORESTRY CAMP,4/23/2021,https://corrections.ky.gov/About/researchandstats/Pages/dailycount.aspx,187,31,0,0,300,122,36.6689938,-83.85169233
federal,Kentucky,BIG SANDY UNITED STATES PENITENTIARY,4/23/2021,https://www.bop.gov/mobile/about/population_statistics.jsp,169,,0,0,,1282,,
state,Kentucky,BLACKBURN CORRECTIONAL COMPLEX,4/23/2021,https://corrections.ky.gov/About/researchandstats/Pages/dailycount.aspx,230,37,1,0,317,243,38.11315935,-84.53720452
federal,Kentucky,DISMAS CHARITIES INC RRC LEXINGTON,4/23/2021,https://www.bop.gov/coronavirus/,7,,0,0,,,,
federal,Kentucky,DISMAS OF MANCHESTER RRC,4/23/2021,https://www.bop.gov/coronavirus/,11,,0,0,,,,
state,Kentucky,EASTERN KENTUCKY CORRECTIONAL COMPLEX,4/23/2021,https://corrections.ky.gov/Facilities/Pages/covid19.aspx,1162,185,1,0,1891,,37.90388911,-83.26930995
state,Kentucky,GREEN RIVER CORRECTIONAL COMPLEX,4/23/2021,https://corrections.ky.gov/About/researchandstats/Pages/dailycount.aspx,368,73,3,0,958,778,37.3143803,-87.11341674
state,Kentucky,KENTUCKY CORRECTIONAL INSTITUTION FOR WOMEN,4/23/2021,https://corrections.ky.gov/About/researchandstats/Pages/dailycount.aspx,403,68,0,0,711,557,38.2854756,-85.45711972
state,Kentucky,KENTUCKY STATE PENITENTIARY,4/23/2021,https://corrections.ky.gov/About/researchandstats/Pages/dailycount.aspx,681,104,1,0,848,760,37.04927104,-88.07574221
state,Kentucky,KENTUCKY STATE REFORMATORY,4/23/2021,https://corrections.ky.gov/About/researchandstats/Pages/dailycount.aspx,534,86,28,2,978,788,38.40389133,-85.41658269
state,Kentucky,LEE ADJUSTMENT CENTER,4/23/2021,https://corrections.ky.gov/About/researchandstats/Pages/dailycount.aspx,698,66,1,0,840,689,37.6066831,-83.70579564
federal,Kentucky,LEXINGTON FEDERAL MEDICAL CENTER,4/23/2021,https://www.bop.gov/mobile/about/population_statistics.jsp,727,,9,0,1270,968,38.10569332,-84.56039514
state,Kentucky,LITTLE SANDY CORRECTIONAL COMPLEX,4/23/2021,https://corrections.ky.gov/About/researchandstats/Pages/dailycount.aspx,576,59,1,0,1039,802,38.13392033,-83.08100422
state,Kentucky,LUTHER LUCKETT CORRECTIONAL COMPLEX,4/23/2021,https://corrections.ky.gov/About/researchandstats/Pages/dailycount.aspx,987,104,2,1,1173,978,38.41243087,-85.42599085
federal,Kentucky,MANCHESTER FEDERAL CORRECTIONAL INSTITUTION,4/23/2021,https://www.bop.gov/mobile/about/population_statistics.jsp,523,,0,0,,974,,
federal,Kentucky,MCCREARY UNITED STATES PENITENTIARY,4/23/2021,https://www.bop.gov/mobile/about/population_statistics.jsp,202,,1,0,1336,1405,36.68845863,-84.38720276
state,Kentucky,NORTHPOINT TRAINING CENTER,4/23/2021,https://corrections.ky.gov/About/researchandstats/Pages/dailycount.aspx,936,104,6,1,1245,1013,37.71002092,-84.74635681
state,Kentucky,ROEDERER CORRECTIONAL COMPLEX,4/23/2021,https://corrections.ky.gov/Facilities/Pages/covid19.aspx,711,76,0,1,1227,,38.40312799,-85.42976305
state,Kentucky,WESTERN KENTUCKY CORRECTIONAL COMPLEX,4/23/2021,https://corrections.ky.gov/Facilities/Pages/covid19.aspx,363,74,4,0,664,,37.13645979,-88.04014801
state,Louisiana,ALLEN CORRECTIONAL CENTER,4/23/2021,https://doc.louisiana.gov/doc-covid-19-testing/,266,40,0,0,1579,,30.56148319,-92.78967268
state,Louisiana,DAVID WADE CORRECTIONAL CENTER,4/23/2021,https://doc.louisiana.gov/doc-covid-19-testing/,93,90,0,0,1227,,32.90173088,-93.01954439
state,Louisiana,DIXON CORRECTIONAL INSTITUTE,4/23/2021,https://doc.louisiana.gov/doc-covid-19-testing/,903,98,9,0,1778,,30.81323901,-91.20751374
state,Louisiana,ELAYN HUNT CORRECTIONAL CENTER,4/23/2021,https://doc.louisiana.gov/doc-covid-19-testing/,233,118,2,0,1999,,30.26563691,-91.08621341
state,Louisiana,LOUISIANA CORRECTIONAL INSTITUTE FOR WOMEN HUNT,4/23/2021,https://doc.louisiana.gov/doc-covid-19-testing/,169,98,2,0,573,,30.2631888,-91.07374348
state,Louisiana,LOUISIANA CORRECTIONAL INSTITUTE FOR WOMEN JETSON,4/23/2021,https://doc.louisiana.gov/doc-covid-19-testing/,185,,0,,,,30.2603498,-91.0746222
state,Louisiana,LOUISIANA STATE PENITENTIARY,4/23/2021,https://doc.louisiana.gov/doc-covid-19-testing/,601,280,18,4,6073,,30.95976935,-91.59732559
federal,Louisiana,OAKDALE I FEDERAL CORRECTIONAL INSTITUTION,4/23/2021,https://www.bop.gov/mobile/about/population_statistics.jsp,175,,7,0,874,805,30.82059582,-92.64063826
federal,Louisiana,OAKDALE II FEDERAL CORRECTIONAL INSTITUTION,4/23/2021,https://www.bop.gov/mobile/about/population_statistics.jsp,378,,2,0,874,794,30.82059582,-92.64063826
federal,Louisiana,POLLOCK FEDERAL CORRECTIONAL INSTITUTION,4/23/2021,https://www.bop.gov/mobile/about/population_statistics.jsp,621,,0,0,1436,1375,31.46692823,-92.44637064
federal,Louisiana,POLLOCK UNITED STATES PENITENTIARY,4/23/2021,https://www.bop.gov/mobile/about/population_statistics.jsp,549,,0,0,,1163,31.4651594,-92.4350473
state,Louisiana,RAYBURN CORRECTIONAL CENTER,4/23/2021,https://doc.louisiana.gov/doc-covid-19-testing/,159,103,2,0,1313,,30.92169823,-89.81584273
state,Louisiana,RAYMOND LABORDE CORRECTIONAL CENTER,4/23/2021,https://doc.louisiana.gov/doc-covid-19-testing/,595,104,3,2,1754,,30.97442232,-92.02522705
federal,Louisiana,VOLUNTEERS OF AMERICA NEW ORLEANS RRC,4/23/2021,https://www.bop.gov/coronavirus/,1,,,,,,,
state,Maine,BOLDUC CORRECTIONAL FACILITY,4/23/2021,https://www.maine.gov/corrections/covid-19-resources,0,,,,192,,44.0676097,-69.21744666
state,Maine,MAINE STATE PRISON,4/23/2021,https://www.maine.gov/corrections/covid-19-resources,15,,,,836,,44.0654412,-69.23040775
state,Maine,MOUNTAIN VIEW CORRECTIONAL FACILITY,4/23/2021,https://www.maine.gov/corrections/covid-19-resources,7,,,,,,45.09252047,-69.09444972
state,Maryland,BALTIMORE CENTRAL BOOKING INTAKE CENTER,4/23/2021,https://news.maryland.gov/dpscs/covid-19/,310,271,0,2,166,,39.2990497,-76.6104617
state,Maryland,BALTIMORE CITY CORRECTIONAL CENTER,4/23/2021,https://news.maryland.gov/dpscs/covid-19/,151,40,0,1,503,,39.3003053,-76.606507
state,Maryland,CHESAPEAKE DETENTION FACILITY,4/23/2021,https://news.maryland.gov/dpscs/covid-19/,185,89,0,0,415,,39.29832772,-76.60941485
state,Maryland,CMCF CENTRAL MARYLAND CF,4/23/2021,https://news.maryland.gov/dpscs/covid-19/,124,35,2,0,,,,
federal,Maryland,CUMBERLAND FEDERAL CORRECTIONAL INSTITUTION,4/23/2021,https://www.bop.gov/mobile/about/population_statistics.jsp,410,,0,0,1011,1000,39.59681,-78.75294
state,Maryland,DORSEY RUN CORRECTIONAL FACILITY,4/23/2021,https://news.maryland.gov/dpscs/covid-19/,95,75,1,0,553,,39.13906251,-76.77697334
state,Maryland,EASTERN CORRECTIONAL INSTITUTION,4/23/2021,https://news.maryland.gov/dpscs/covid-19/,1090,230,1,0,2604,,38.15738518,-75.70440049
state,Maryland,EASTERN PRERELEASE UNIT,4/23/2021,https://news.maryland.gov/dpscs/covid-19/,3,5,0,0,,,,
state,Maryland,JESSUP CORRECTIONAL INSTITUTION,4/23/2021,https://news.maryland.gov/dpscs/covid-19/,355,143,3,0,997,,39.1416755,-76.7703613
federal,Maryland,JESUP FEDERAL CORRECTIONAL INSTITUTION,4/23/2021,https://www.bop.gov/mobile/about/population_statistics.jsp,465,,2,0,,876,,
state,Maryland,MARYLAND CORRECTIONAL INSTITUTION FOR WOMEN,4/23/2021,https://news.maryland.gov/dpscs/covid-19/,61,111,0,0,777,,39.132672,-76.775413
state,Maryland,MARYLAND CORRECTIONAL INSTITUTION HAGERSTOWN,4/23/2021,https://news.maryland.gov/dpscs/covid-19/,141,87,3,0,,,,
state,Maryland,MARYLAND CORRECTIONAL TRAINING CENTER HAGERSTOWN,4/23/2021,https://news.maryland.gov/dpscs/covid-19/,226,168,3,1,2436,,39.56483486,-77.71487398
state,Maryland,MARYLAND RECEPTION DIAGNOSTICS AND CLASSICIATION CENTER,4/23/2021,https://news.maryland.gov/dpscs/covid-19/,122,97,0,0,352,,39.2991796,-76.6068221
state,Maryland,METROPOLITAN TRANSITION CENTER BALTIMORE,4/23/2021,https://news.maryland.gov/dpscs/covid-19/,242,161,1,0,202,,39.30006162,-76.60856614
federal,Maryland,MID ATLANTIC REGIONAL OFFICE,4/23/2021,https://www.bop.gov/coronavirus/,,,0,0,,,,
state,Maryland,PATUXENT INSTITUTION,4/23/2021,https://news.maryland.gov/dpscs/covid-19/,69,123,1,0,915,,39.1640425,-76.7803021
state,Maryland,ROXBURY CORRECTIONAL INSTITUTION,4/23/2021,https://news.maryland.gov/dpscs/covid-19/,275,118,4,0,1749,,39.5585136,-77.7151794
state,Maryland,SOUTHERN MARYLAND PRERELEASE UNIT,4/23/2021,https://news.maryland.gov/dpscs/covid-19/,23,9,0,0,,,,
state,Maryland,STATEWIDE,4/23/2021,https://news.maryland.gov/dpscs/covid-19/,,,,,,,,
federal,Maryland,VOLUNTEERS OF AMERICA INC BALTIMORE,4/23/2021,https://www.bop.gov/coronavirus/,21,,0,0,,,,
state,Maryland,WESTERN CORRECTIONAL INSTITUTION,4/23/2021,https://news.maryland.gov/dpscs/covid-19/,281,143,7,0,1606,,39.60675169,-78.81541984
state,Maryland,YOUTH DETENTION CENTER,4/23/2021,https://news.maryland.gov/dpscs/covid-19/,19,39,0,0,,,,
state,Massachusetts,BOSTON PRERELEASE CENTER,4/23/2021,https://data.aclum.org/sjc-12926-tracker/,1,49,0,,90,84,42.29249533,-71.10138368
state,Massachusetts,BRIDGEWATER STATE HOSPITAL,4/23/2021,https://data.aclum.org/sjc-12926-tracker/,37,3,1,,217,228,41.94236268,-70.95533897
federal,Massachusetts,COOLIDGE HOUSE,4/23/2021,https://www.bop.gov/coronavirus/,6,,0,0,,,,
federal,Massachusetts,DEVENS FEDERAL MEDICAL CENTER,4/23/2021,https://www.bop.gov/mobile/about/population_statistics.jsp,376,,10,0,999,673,42.52538943,-71.62068113
state,Massachusetts,LEMUEL SHATTUCK HOSPITAL,4/23/2021,https://data.aclum.org/sjc-12926-tracker/,8,13,0,,19,22,42.29954332,-71.10186116
state,Massachusetts,MASSACHUSETTS ALCOHOL AND SUBSTANCE ABUSE CENTER,4/23/2021,https://data.aclum.org/sjc-12926-tracker/,58,8,0,,262,93,41.84954067,-70.66055521
state,Massachusetts,MASSACHUSETTS CORRECTIONAL INSTITUTION CONCORD,4/23/2021,https://data.aclum.org/sjc-12926-tracker/,296,72,2,,581,493,42.26751289,-71.40741919
state,Massachusetts,MASSACHUSETTS CORRECTIONAL INSTITUTION FRAMINGHAM,4/23/2021,https://data.aclum.org/sjc-12926-tracker/,95,43,0,,171,164,42.26751289,-71.40741919
state,Massachusetts,MASSACHUSETTS CORRECTIONAL INSTITUTION NORFOLK,4/23/2021,https://data.aclum.org/sjc-12926-tracker/,508,70,3,,1251,1168,42.11912903,-71.30417136
state,Massachusetts,MASSACHUSETTS CORRECTIONAL INSTITUTION SHIRLEY,4/23/2021,https://data.aclum.org/sjc-12926-tracker/,517,88,4,,1261,828,42.52777547,-71.64478578
state,Massachusetts,MASSACHUSETTS CORRECTIONAL INSTIUTION CEDAR JUNCTION,4/23/2021,https://data.aclum.org/sjc-12926-tracker/,133,125,0,,65,446,42.10625584,-71.28979656
state,Massachusetts,MASSACHUSETTS TREATMENT CENTER,4/23/2021,https://data.aclum.org/sjc-12926-tracker/,189,56,5,,572,544,41.94603,-70.95615
state,Massachusetts,NON FACILITY,4/23/2021,https://data.aclum.org/sjc-12926-tracker/,0,77,0,,,,,
state,Massachusetts,NORTH CENTRAL CORRECTIONAL INSTITUTION,4/23/2021,https://data.aclum.org/sjc-12926-tracker/,955,64,3,,959,778,42.57979064,-71.94163001
state,Massachusetts,NORTHEASTERN CORRECTIONAL CENTER,4/23/2021,https://data.aclum.org/sjc-12926-tracker/,19,19,0,,188,201,42.47226271,-71.3979684
state,Massachusetts,OLD COLONY CORRECTIONAL CENTER,4/23/2021,https://data.aclum.org/sjc-12926-tracker/,239,64,3,,659,647,41.949505,-70.958108
state,Massachusetts,PONDVILLE CORRECTIONAL CENTER,4/23/2021,https://data.aclum.org/sjc-12926-tracker/,2,13,0,,151,135,42.10844241,-71.29302577
state,Massachusetts,SOUTH MIDDLESEX CORRECTIONAL CENTER,4/23/2021,https://data.aclum.org/sjc-12926-tracker/,12,8,0,,63,0,42.26527533,-71.40592072
state,Massachusetts,SOUZA BARANOWSKI CORRECTIONAL CENTER,4/23/2021,https://data.aclum.org/sjc-12926-tracker/,27,52,0,,672,533,42.5323792,-71.6506575
state,Massachusetts,STATEWIDE,4/23/2021,https://www.mass.gov/guides/doc-coronavirus-information-guide,,,,,,,,
state,Michigan,ALGER CORRECTIONAL FACILITY,4/23/2021,https://medium.com/@MichiganDOC/mdoc-takes-steps-to-prevent-spread-of-coronavirus-covid-19-250f43144337,152,34,0,0,886,,46.37861565,-86.63961732
state,Michigan,BARAGA CORRECTIONAL FACILITY,4/23/2021,https://medium.com/@MichiganDOC/mdoc-takes-steps-to-prevent-spread-of-coronavirus-covid-19-250f43144337,171,90,1,0,787,,46.76254867,-88.51121638
state,Michigan,BELLAMY CREEK CORRECTIONAL FACILITY,4/23/2021,https://medium.com/@MichiganDOC/mdoc-takes-steps-to-prevent-spread-of-coronavirus-covid-19-250f43144337,940,149,1,1,1753,,42.9779589,-85.1058981
state,Michigan,CARSON CITY CORRECTIONAL FACILITY,4/23/2021,https://medium.com/@MichiganDOC/mdoc-takes-steps-to-prevent-spread-of-coronavirus-covid-19-250f43144337,2118,277,6,0,2240,,43.16055265,-84.8706099
state,Michigan,CENTRAL MICHIGAN CORRECTIONAL FACILITY,4/23/2021,https://medium.com/@MichiganDOC/mdoc-takes-steps-to-prevent-spread-of-coronavirus-covid-19-250f43144337,2053,254,2,1,2542,,43.41349391,-84.59269546
state,Michigan,CENTRAL OFFICE,4/23/2021,https://medium.com/@MichiganDOC/mdoc-takes-steps-to-prevent-spread-of-coronavirus-covid-19-250f43144337,,53,,0,,,,
state,Michigan,CHARLES E EGELER RECEPTION AND GUIDANCE CENTER,4/23/2021,https://medium.com/@MichiganDOC/mdoc-takes-steps-to-prevent-spread-of-coronavirus-covid-19-250f43144337,2473,235,10,0,950,,42.3000507,-84.3910401
federal,Michigan,CHERRY STREET SERVICES INC RRC DETROIT,4/23/2021,https://www.bop.gov/coronavirus/,10,,,,,,42.4237514,-83.060677
federal,Michigan,CHERRY STREET SERVICES INC RRC GRAND RAPIDS,4/23/2021,https://www.bop.gov/coronavirus/,3,,0,0,,,42.959376,-85.655524
state,Michigan,CHIPPEWA CORRECTIONAL FACILITY,4/23/2021,https://medium.com/@MichiganDOC/mdoc-takes-steps-to-prevent-spread-of-coronavirus-covid-19-250f43144337,1816,214,8,0,2322,,46.25739619,-84.45543766
state,Michigan,COOPER STREET CORRECTIONAL FACILITY,4/23/2021,https://medium.com/@MichiganDOC/mdoc-takes-steps-to-prevent-spread-of-coronavirus-covid-19-250f43144337,1218,158,6,0,1739,,42.29594082,-84.39699376
state,Michigan,DETROIT DETENTION CENTER,4/23/2021,https://medium.com/@MichiganDOC/mdoc-takes-steps-to-prevent-spread-of-coronavirus-covid-19-250f43144337,,23,,0,,,42.4237282,-83.04767905
state,Michigan,DETROIT REENTRY CENTER,4/23/2021,https://medium.com/@MichiganDOC/mdoc-takes-steps-to-prevent-spread-of-coronavirus-covid-19-250f43144337,26,34,2,1,,,42.4237514,-83.060677
state,Michigan,DUANE WATERS HEALTH CENTER,4/23/2021,https://medium.com/@MichiganDOC/mdoc-takes-steps-to-prevent-spread-of-coronavirus-covid-19-250f43144337,34,,3,,,,42.2983416,-84.3877459
state,Michigan,EARNEST C BROOKS CORRECTIONAL FACILITY,4/23/2021,https://medium.com/@MichiganDOC/mdoc-takes-steps-to-prevent-spread-of-coronavirus-covid-19-250f43144337,1012,120,2,0,1297,,43.21016802,-86.17885516
state,Michigan,FIELD OPERATIONS ADMINISTRATION METRO,4/23/2021,https://medium.com/@MichiganDOC/mdoc-takes-steps-to-prevent-spread-of-coronavirus-covid-19-250f43144337,,67,,1,,,,
state,Michigan,FIELD OPERATIONS ADMINISTRATION OUTSTATE,4/23/2021,https://medium.com/@MichiganDOC/mdoc-takes-steps-to-prevent-spread-of-coronavirus-covid-19-250f43144337,,75,,0,,,,
state,Michigan,G ROBERT COTTON CORRECTIONAL FACILITY,4/23/2021,https://medium.com/@MichiganDOC/mdoc-takes-steps-to-prevent-spread-of-coronavirus-covid-19-250f43144337,961,142,4,0,1796,,42.28816782,-84.38996269
state,Michigan,GUS HARRISON CORRECTIONAL FACILITY,4/23/2021,https://medium.com/@MichiganDOC/mdoc-takes-steps-to-prevent-spread-of-coronavirus-covid-19-250f43144337,1466,208,7,1,2331,,41.88608464,-84.00729219
state,Michigan,IONIA CORRECTIONAL FACILTY,4/23/2021,https://medium.com/@MichiganDOC/mdoc-takes-steps-to-prevent-spread-of-coronavirus-covid-19-250f43144337,325,140,1,0,681,,42.98441226,-85.10165355
state,Michigan,JACKSON REGIONAL WAREHOUSE,4/23/2021,https://medium.com/@MichiganDOC/mdoc-takes-steps-to-prevent-spread-of-coronavirus-covid-19-250f43144337,,4,,0,,,,
state,Michigan,KINROSS CORRECTIONAL FACILITY,4/23/2021,https://medium.com/@MichiganDOC/mdoc-takes-steps-to-prevent-spread-of-coronavirus-covid-19-250f43144337,1303,144,8,0,1509,,46.24908495,-84.4546902
state,Michigan,LAKELAND CORRECTIONAL FACILITY,4/23/2021,https://medium.com/@MichiganDOC/mdoc-takes-steps-to-prevent-spread-of-coronavirus-covid-19-250f43144337,840,115,24,0,1460,,41.96544296,-84.99596572
state,Michigan,MACOMB CORRECTIONAL FACILITY,4/23/2021,https://medium.com/@MichiganDOC/mdoc-takes-steps-to-prevent-spread-of-coronavirus-covid-19-250f43144337,452,147,6,0,1355,,42.72443715,-82.76346857
state,Michigan,MARQUETTE BRANCH PRISON,4/23/2021,https://medium.com/@MichiganDOC/mdoc-takes-steps-to-prevent-spread-of-coronavirus-covid-19-250f43144337,853,190,1,0,1060,,46.51061029,-87.38141778
state,Michigan,MICHIGAN REFORMATORY,4/23/2021,https://medium.com/@MichiganDOC/mdoc-takes-steps-to-prevent-spread-of-coronavirus-covid-19-250f43144337,956,132,1,0,1193,,42.97582655,-85.09418144
federal,Michigan,MILAN FEDERAL CORRECTIONAL INSTITUTION,4/23/2021,https://www.bop.gov/mobile/about/population_statistics.jsp,252,,3,0,1415,1279,42.09466456,-83.6685708
state,Michigan,MUSKEGON CORRECTIONAL FACILITY,4/23/2021,https://medium.com/@MichiganDOC/mdoc-takes-steps-to-prevent-spread-of-coronavirus-covid-19-250f43144337,1116,117,9,0,1297,,43.21016802,-86.17885516
state,Michigan,NEWBERRY CORRECTIONAL FACILITY,4/23/2021,https://medium.com/@MichiganDOC/mdoc-takes-steps-to-prevent-spread-of-coronavirus-covid-19-250f43144337,856,76,1,0,1098,,46.33045373,-85.50773486
federal,Michigan,NORTH LAKE CORRECTIONAL INSTITUTION,4/23/2021,https://www.bop.gov/mobile/about/population_statistics.jsp,,,2,0,,1630,43.92727278,-85.83904558
state,Michigan,OAKS CORRECTIONAL FACILITY,4/23/2021,https://medium.com/@MichiganDOC/mdoc-takes-steps-to-prevent-spread-of-coronavirus-covid-19-250f43144337,773,123,2,0,1039,,44.24570899,-86.27001593
state,Michigan,PARNALL CORRECTIONAL FACILITY,4/23/2021,https://medium.com/@MichiganDOC/mdoc-takes-steps-to-prevent-spread-of-coronavirus-covid-19-250f43144337,545,123,10,0,1675,,42.29128,-84.38861
state,Michigan,RICHARD A HANDLON CORRECTIONAL FACILITY,4/23/2021,https://medium.com/@MichiganDOC/mdoc-takes-steps-to-prevent-spread-of-coronavirus-covid-19-250f43144337,799,121,3,0,1257,,42.98248,-85.1060505
state,Michigan,SAGINAW CORRECTIONAL FACILITY,4/23/2021,https://medium.com/@MichiganDOC/mdoc-takes-steps-to-prevent-spread-of-coronavirus-covid-19-250f43144337,1137,142,9,0,1463,,43.50694671,-84.1034509
state,Michigan,ST LOUIS CORRECTIONAL FACILITY,4/23/2021,https://medium.com/@MichiganDOC/mdoc-takes-steps-to-prevent-spread-of-coronavirus-covid-19-250f43144337,817,131,2,0,1133,,43.41654906,-84.59214985
state,Michigan,THUMB CORRECTIONAL FACILITY,4/23/2021,https://medium.com/@MichiganDOC/mdoc-takes-steps-to-prevent-spread-of-coronavirus-covid-19-250f43144337,530,91,9,0,1106,,43.03511898,-83.34837185
state,Michigan,WOMENS HURON VALLEY CORRECTIONAL FACILITY,4/23/2021,https://medium.com/@MichiganDOC/mdoc-takes-steps-to-prevent-spread-of-coronavirus-covid-19-250f43144337,448,144,4,0,2213,,42.17500449,-83.69201372
state,Michigan,WOODLAND CENTER CORRECTIONAL FACILITY,4/23/2021,https://medium.com/@MichiganDOC/mdoc-takes-steps-to-prevent-spread-of-coronavirus-covid-19-250f43144337,52,97,1,0,336,,42.43844178,-83.77209374
federal,Minnesota,DULUTH FEDERAL PRISON CAMP,4/23/2021,https://www.bop.gov/mobile/about/population_statistics.jsp,192,,0,0,,291,46.8356757,-92.1963649
state,Minnesota,FARIBAULT CORRECTIONAL FACILITY,4/23/2021,https://mn.gov/doc/about/covid-19-updates/,1196,166,8,,1988,1633,44.28272455,-93.25602148
state,Minnesota,FIELD SERVICES,4/23/2021,https://mn.gov/doc/about/covid-19-updates/,,64,,,,,,
county,Minnesota,HENNEPIN COUNTY JAIL,4/23/2021,https://www.hennepinsheriff.org/jail-warrants/jail-information/COVID-19,376,,,,330,438,44.97672,-93.26405
state,Minnesota,LINO LAKES CORRECTIONAL FACILITY,4/23/2021,https://mn.gov/doc/about/covid-19-updates/,356,100,0,,,989,45.17682,-93.12519
state,Minnesota,MOOSE LAKE CORRECTIONAL FACILITY,4/23/2021,https://mn.gov/doc/about/covid-19-updates/,158,99,1,,,837,46.4405678,-92.7585504
state,Minnesota,OAK PARK HEIGHTS CORRECTIONAL FACILITY,4/23/2021,https://mn.gov/doc/about/covid-19-updates/,94,88,1,,396,388,45.02524593,-92.80149182
state,Minnesota,RED WING CORRECTIONAL FACILITY,4/23/2021,https://mn.gov/doc/about/covid-19-updates/,1,25,0,,154,96,44.55979544,-92.49713667
federal,Minnesota,ROCHESTER FEDERAL MEDICAL FACILITY,4/23/2021,https://www.bop.gov/mobile/about/population_statistics.jsp,384,,0,0,639,644,44.02434943,-92.43638072
state,Minnesota,RUSH CORRECTIONAL FACILITY,4/23/2021,https://mn.gov/doc/about/covid-19-updates/,216,85,1,,990,843,45.70906048,-92.94823166
state,Minnesota,SAINT CLOUD CORRECTIONAL FACILITY,4/23/2021,https://mn.gov/doc/about/covid-19-updates/,1063,178,0,,1020,585,45.54342005,-94.11639932
federal,Minnesota,SANDSTONE FEDERAL CORRECTIONAL INSTITUTION,4/23/2021,https://www.bop.gov/mobile/about/population_statistics.jsp,652,,1,0,,814,46.1097415,-92.8556877
state,Minnesota,SHAKOPEE CORRECTIONAL FACILITY,4/23/2021,https://mn.gov/doc/about/covid-19-updates/,36,63,0,,625,407,44.78988401,-93.5385428
state,Minnesota,STILLWATER CORRECTIONAL FACILITY,4/23/2021,https://mn.gov/doc/about/covid-19-updates/,978,211,1,,1580,1273,45.02780088,-92.78916194
state,Minnesota,TOGO CORRECTIONAL FACILITY,4/23/2021,https://mn.gov/doc/about/covid-19-updates/,8,4,0,,86,83,47.7846388,-93.23946361
federal,Minnesota,WASECA FEDERAL CORRECTIONAL INSTITUTION,4/23/2021,https://www.bop.gov/mobile/about/population_statistics.jsp,410,,0,0,,708,44.0671238,-93.5194506
state,Minnesota,WILLOW RIVER CORRECTIONAL FACILITY,4/23/2021,https://mn.gov/doc/about/covid-19-updates/,76,7,0,,141,98,46.35236775,-92.82875936
state,Mississippi,ALCORN COUNTY CORRECTIONAL FACILITY,4/23/2021,https://www.mdoc.ms.gov/Pages/COVID-19-Information-and-Updates.aspx,0,,,,300,,34.9103402,-88.5518458
state,Mississippi,BOLIVAR COUNTY CORRECTIONAL FACILITY,4/23/2021,https://www.mdoc.ms.gov/Pages/COVID-19-Information-and-Updates.aspx,2,,,,291,,33.76874715,-90.80462361
state,Mississippi,CARROLL MONTGOMERY COUNTY CORRECTIONAL FACILITY,4/23/2021,https://www.mdoc.ms.gov/Pages/COVID-19-Information-and-Updates.aspx,123,,,,268,,33.33754675,-89.77247003
state,Mississippi,CENTRAL MISSISSIPPI CORRECTIONAL FACILITY,4/23/2021,https://www.mdoc.ms.gov/Pages/COVID-19-Information-and-Updates.aspx,104,,,,3536,,32.22771319,-90.05899543
state,Mississippi,CHICKASAW COUNTY CORRECTIONAL FACILITY,4/23/2021,https://www.mdoc.ms.gov/Pages/COVID-19-Information-and-Updates.aspx,20,,,,310,,33.92045894,-89.02197885
state,Mississippi,DELTA CORRECTIONAL FACILITY,4/23/2021,https://www.mdoc.ms.gov/Pages/COVID-19-Information-and-Updates.aspx,4,,,,703,,33.48064226,-90.21207949
federal,Mississippi,DISMAS CHARITIES HATTIESBURG,4/23/2021,https://www.bop.gov/coronavirus/,4,,1,0,,,,
state,Mississippi,EAST MISSISSIPPI CORRECTIONAL FACILITY MERIDIAN,4/23/2021,https://www.mdoc.ms.gov/Pages/COVID-19-Information-and-Updates.aspx,44,,,,1223,,32.33866728,-88.79875521
state,Mississippi,GEORGE COUNTY CORRECTIONAL FACILITY,4/23/2021,https://www.mdoc.ms.gov/Pages/COVID-19-Information-and-Updates.aspx,235,,,,338,,30.93037593,-88.58691025
state,Mississippi,HOLMES HUMPHREYS COUNTY CORRECTIONAL FACILITY,4/23/2021,https://www.mdoc.ms.gov/Pages/COVID-19-Information-and-Updates.aspx,0,,,,279,,33.10591845,-90.02500712
state,Mississippi,ISSAQUENA COUNTY CORRECTIONAL FACILITY,4/23/2021,https://www.mdoc.ms.gov/Pages/COVID-19-Information-and-Updates.aspx,51,,,,276,,32.9001814,-91.04858068
state,Mississippi,JEFFERSON FRANKLIN COUNTY CORRECTIONAL FACILITY,4/23/2021,https://www.mdoc.ms.gov/Pages/COVID-19-Information-and-Updates.aspx,0,,,,281,,31.70070566,-91.07479296
state,Mississippi,KEMPER NESHOBA COUNTY CORRECTIONAL FACILITY,4/23/2021,https://www.mdoc.ms.gov/Pages/COVID-19-Information-and-Updates.aspx,2,,,,353,,32.77048178,-88.68436064
state,Mississippi,LEAKE COUNTY CORRECTIONAL FACILITY,4/23/2021,https://www.mdoc.ms.gov/Pages/COVID-19-Information-and-Updates.aspx,74,,,,280,,32.73333399,-89.52348483
state,Mississippi,MARION WALTHALL COUNTY CORRECTIONAL FACILITY,4/23/2021,https://www.mdoc.ms.gov/Pages/COVID-19-Information-and-Updates.aspx,15,,,,396,,31.24948905,-89.83684982
state,Mississippi,MARSHALL COUNTY CORRECTIONAL FACILITY HOLLY SPRINGS,4/23/2021,https://www.mdoc.ms.gov/Pages/COVID-19-Information-and-Updates.aspx,94,,,,999,,34.79629472,-89.43791794
state,Mississippi,MISSISSIPPI STATE PENITENTIARY PARCHMAN,4/23/2021,https://www.mdoc.ms.gov/Pages/COVID-19-Information-and-Updates.aspx,109,,,,2738,,33.92656612,-90.5455116
state,Mississippi,SOUTH MISSISSIPPI CORRECTIONAL INSTITUTION LEAKESVILLE,4/23/2021,https://www.mdoc.ms.gov/Pages/COVID-19-Information-and-Updates.aspx,395,,,,2637,,31.17640585,-88.60693722
state,Mississippi,STONE COUNTY CORRECTIONAL FACILITY,4/23/2021,https://www.mdoc.ms.gov/Pages/COVID-19-Information-and-Updates.aspx,8,,,,281,,30.83619281,-89.13456299
state,Mississippi,TALLAHATCHIE COUNTY CORRECTIONAL FACILITY,4/23/2021,https://www.mdoc.ms.gov/Pages/COVID-19-Information-and-Updates.aspx,47,,,,375,,34.02594191,-90.44495994
state,Mississippi,WASHINGTON COUNTY CORRECTIONAL FACILITY,4/23/2021,https://www.mdoc.ms.gov/Pages/COVID-19-Information-and-Updates.aspx,85,,,,133,,33.33414116,-91.13601515
state,Mississippi,WILKINSON COUNTY CORRECTIONAL FACILITY,4/23/2021,https://www.mdoc.ms.gov/Pages/COVID-19-Information-and-Updates.aspx,9,,,,921,,31.13830074,-91.277349
state,Mississippi,WINSTON CHOCTAW COUNTY CORRECTIONAL FACILITY,4/23/2021,https://www.mdoc.ms.gov/Pages/COVID-19-Information-and-Updates.aspx,18,,,,278,,33.16954162,-89.05528311
state,Missouri,ALGOA CORRECTIONAL CENTER,4/23/2021,https://doc.mo.gov/media-center/newsroom/covid-19/data,,,,,1941,,38.55187713,-92.04693637
state,Missouri,BONNE TERRE EASTERN RECEPTION DIAGNOSTICS CORRECTIONAL CENTER,4/23/2021,https://doc.mo.gov/media-center/newsroom/covid-19/data,,,,,,,,
state,Missouri,BOONVILLE CORRECTIONAL CENTER,4/23/2021,https://doc.mo.gov/media-center/newsroom/covid-19/data,,,,,1322,,38.97554219,-92.72922101
state,Missouri,BOWLING GREEN NECC,4/23/2021,https://doc.mo.gov/media-center/newsroom/covid-19/data,,,,,,,,
federal,Missouri,DISMAS HOUSE OF ST LOUIS RRC,4/23/2021,https://www.bop.gov/coronavirus/,2,,,,,,,
state,Missouri,FARMINGTON CORRECTIONAL CENTER,4/23/2021,https://doc.mo.gov/media-center/newsroom/covid-19/data,,,,,2622,,37.76699296,-90.43638523
state,Missouri,FORDLAND OCC,4/23/2021,https://doc.mo.gov/media-center/newsroom/covid-19/data,,,,,,,,
state,Missouri,FULTON CTCC,4/23/2021,https://doc.mo.gov/media-center/newsroom/covid-19/data,,,,,,,,
state,Missouri,FULTON RECEPTION AND DIAGNOSTIC CENTER,4/23/2021,https://doc.mo.gov/media-center/newsroom/covid-19/data,,,,,1400,,38.84598745,-91.9221143
state,Missouri,JCCC JEFFERSON CITY,4/23/2021,https://doc.mo.gov/media-center/newsroom/covid-19/data,,,,,,,,
state,Missouri,KANSAS CITY REENTRY CENTER,4/23/2021,https://doc.mo.gov/media-center/newsroom/covid-19/data,,,,,141,,39.10671402,-94.59760549
